lat,lon,city_name,year,cluster
34.5,-4.55,Ain Mediouna,1982,Low
31.6667,-7.0667,Sidi Yakoub,1982,High
34.1667,-4.5,Ain Legdah,1982,Medium
32.3037,-3.9861,Toulal,1982,High
32.8808,-5.0542,Itzer,1982,Medium
33.6681,-7.2514,Beni Yakhlef,1982,Medium
33.2517,-5.0259,Timahdit,1982,Medium
33.8261,-6.9039,Sidi Yahya Zaer,1982,Medium
35.1833,-4.0,Izmorene,1982,Low
31.5145,-8.7555,Jafra,1982,High
30.4969,-8.8211,Sidi Yahia,1982,Medium
31.6806,-7.7281,Jaidte Lbatma,1982,High
35.1069,-3.0656,Beni Sidal Louta,1982,Medium
32.3516,-8.8744,Jamaat Shaim,1982,Medium
32.6833,-5.5833,Sidi Yahia Sawad,1982,High
30.8434,-9.8186,Iskourane,1982,Medium
34.5897,-4.4514,Beni Oulid,1982,Low
34.3058,-6.3058,Sidi Yahia El Gharb,1982,Medium
34.5949,-2.372,Ain Lehjer,1982,Low
34.4314,-4.9642,Jbabra,1982,Medium
32.1154,-8.7587,Jdour,1982,Medium
33.5881,-6.4264,Jemaat Moul Blad,1982,Medium
32.8167,-8.5,Sidi Smai'il,1982,High
34.4333,-5.4,Beni Oual Sehira,1982,Medium
31.5339,-7.4872,Touama,1982,High
33.0939,-7.0519,Jemaat Oulad Mhamed,1982,Medium
34.31,-2.16,Jerada,1982,Low
34.26,-5.93,Sidi Slimane,1982,Medium
32.0308,-8.7894,Jnane Bouih,1982,Medium
32.3394,-6.3608,Beni Mellal,1982,Medium
34.6833,-5.45,Sidi Redouane,1982,Medium
33.2925,-7.4406,Jaqma,1982,Medium
35.65,-5.6833,Jouamaa,1982,Low
30.3658,-9.5381,Inezgane,1982,High
31.6706,-8.3456,Sidi Zouine,1982,High
33.85,-4.8667,Bhalil,1982,Medium
30.9931,-8.1528,Ijoukak,1982,Medium
31.1717,-5.6489,Ikniwn,1982,Medium
34.4833,-5.5169,Souk et Tnine Jorf el Mellah,1982,Medium
33.6372,-7.4483,Ain Harrouda,1982,Medium
35.4542,-5.6125,Bghaghza,1982,Low
35.1333,-3.0333,Iksane,1982,Medium
31.2647,-6.5906,Toundout,1982,Medium
32.8938,-6.245,Souk el Had-des Beni-Batao,1982,High
30.1675,-9.2322,Imi Mokorn,1982,Medium
35.1167,-5.95,Souakene,1982,Low
31.3094,-6.4992,Imi n'Oulaoun,1982,Medium
31.2156,-9.5461,Imi n-Tlit,1982,Medium
32.0833,-7.05,Bezou,1982,High
30.5047,-5.8563,Beni Zouli,1982,Medium
31.2136,-9.7058,Smimou,1982,Medium
31.177,-8.8504,Imi-n-Tanout,1982,Medium
31.0672,-6.5397,Skoura,1982,Medium
34.9167,-2.3167,Berkane,1982,Low
31.1097,-8.1336,Imigdal,1982,Medium
32.155,-5.6347,Imilchil,1982,High
30.7436,-8.7633,Imoulas,1982,High
32.4833,-7.9167,Skhour Rehamna,1982,High
34.15,-4.8314,Ain Kansara,1982,Medium
30.674,-9.5624,Imouzzer des Ida ou Tanane,1982,Medium
33.6122,-7.1211,Benslimane,1982,Medium
33.7215,-5.0083,Imouzzer Kandar,1982,Medium
33.85,-7.03,Skhirate,1982,Medium
33.3611,-7.6114,Zawyat an Nwacer,1982,Medium
35.1448,-3.8505,Imzouren,1982,Low
34.0263,-5.7949,Ain Jemaa,1982,Medium
35.325,-5.6422,Souk Khmis Bni Arouss,1982,Low
35.4333,-5.4,Zinat,1982,Medium
33.9333,-5.2167,Ain Taoujdat,1982,Medium
32.9,-6.05,Sidi Lamine,1982,High
30.0314,-9.5542,Bellaa,1982,High
31.309,-6.028,Knemis Dades,1982,Medium
34.0999,-2.6219,Sidi Lahsene,1982,Low
32.88,-6.9,Kouribga,1982,High
33.27,-7.5872,Barrechid,1982,Medium
35.5339,-5.2183,Sidi Kasem,1982,Low
34.5833,-4.7333,Timezgana,1982,Low
33.85,-5.0667,Ait Amar,1982,Medium
31.4569,-9.3131,Kourimat,1982,Medium
32.3833,-6.4167,Sidi Jaber,1982,Medium
34.7703,-6.3047,Bahharet Oulad Ayyad,1982,Low
35.0,-5.9,Ksar El Kebir,1982,Low
35.8428,-5.5586,Ksar Lmajaz,1982,Low
34.6,-5.0833,Kissane Ltouqi,1982,Medium
32.8397,-6.6947,Ksar Oulad Azzouz,1982,High
35.8419,-5.5586,Ksar Sghir,1982,Low
34.0697,-4.1203,Bab Boudir,1982,Medium
34.9833,-3.15,Tiztoutine,1982,Medium
34.2933,-6.1594,Ksebia,1982,Medium
30.6142,-5.5223,Ait Athmane,1982,Medium
34.0278,-4.8833,Sidi Harazem,1982,Medium
34.2894,-4.9481,L'Oulja,1982,Medium
32.1594,-8.8267,Sidi Ettiji,1982,Medium
33.43,-5.21,Azrou,1982,Medium
31.9117,-7.335,La'tamna,1982,High
31.8944,-8.9842,Laamarna,1982,High
34.6039,-4.7889,Sidi el Mokhfi,1982,Low
33.6833,-4.8167,Laanoussar,1982,Medium
30.07,-9.155,Ait Ban,1982,Medium
29.3833,-10.1667,Sidi Ifni,1982,High
34.8614,-2.021,Beni Khaled,1982,Low
30.1739,-9.4881,Ait Ali,1982,Medium
31.57,-9.01,Sidi Lmokhtar,1982,High
34.3631,-5.2123,Karia Ba Mohamed,1982,Medium
31.6667,-7.4833,Sidi Rahhal,1982,High
34.7667,-5.95,Kariat Ben Aouda,1982,Medium
35.37,-5.97,Tnine Sidi Lyamani,1982,Low
33.4725,-7.9617,Sidi Rahal,1982,Medium
30.8833,-9.05,Timezgadiouine,1982,Medium
32.475,-6.1497,Kasba Tanora,1982,Medium
35.2569,-2.9342,Beni Enzar,1982,Low
32.6541,-5.9214,Zawyat ech Cheikh,1982,High
31.5592,-9.2483,Kechoulah,1982,High
34.21,-5.7,Sidi Qacem,1982,Medium
34.6575,-3.5331,Ain Zora,1982,Medium
34.5329,-4.2941,Kef el Rhar,1982,Low
35.1536,-2.9861,Beni Bou Yafroun,1982,Low
33.7983,-6.2653,Khmis Sidi Yahia,1982,Medium
30.4167,-9.0333,Kenafif,1982,Medium
34.25,-6.5833,Kenitra,1982,Medium
32.7986,-5.3225,Kerrouchen,1982,Medium
33.5594,-7.3817,Sidi Moussa Ben Ali,1982,Medium
34.9158,-4.5686,Ketama,1982,Low
34.7167,-6.2667,Sidi Mohamed Lahmar,1982,Low
35.0837,-3.4696,Ben Taieb,1982,Medium
33.7808,-5.7822,Ait Ali Mimoune,1982,Medium
32.2236,-9.1278,Khat Azakane,1982,Medium
29.2987,-9.825,Sidi Mbark,1982,Medium
34.4383,-5.6844,Khenichet-sur Ouerrha,1982,Medium
35.7878,-5.4678,Tleta Taghramt,1982,Low
32.93,-5.66,Khenifra,1982,High
32.23,-7.95,Ben Guerir,1982,High
33.1228,-7.6219,Khmis Sidi al 'Aydi,1982,Medium
30.05,-9.6833,Sidi Ouassay,1982,High
35.7167,-5.8,Laaouama,1982,Low
35.15,-2.9667,Iheddadene,1982,Low
32.0333,-6.2,Tilougguit,1982,Medium
32.2914,-3.466,Bni Tajjit,1982,Medium
35.25,-5.1833,Talambote,1982,Medium
33.3,-6.5333,Ezzhiliga,1982,Medium
31.2858,-7.9656,Zawiat Moulay Brahim,1982,High
32.16,-6.35,Wawizaght,1982,Medium
34.0433,-5.0033,Fes,1982,Medium
35.0108,-4.7262,Bni Rzine,1982,Medium
30.25,-9.55,Takad Sahel,1982,High
34.9164,-2.2042,Fezouane,1982,Low
34.95,-5.25,Fifi,1982,Medium
33.6333,-5.5833,Agourai,1982,Medium
34.0476,-4.4289,Tahla,1982,Medium
32.1167,-1.2269,Figuig,1982,Medium
34.7381,-5.5442,Bni Quolla,1982,Medium
35.6519,-5.7328,Ez Zinat,1982,Low
35.85,-5.35,Fnidq,1982,Low
29.9833,-5.5667,Tagounite,1982,Medium
32.3717,-6.2614,Foum el Anser,1982,Medium
32.2167,-5.4333,Tighadouine,1982,High
31.96,-6.98,Foum Jam'a,1982,High
33.15,-5.8333,Aguelmous,1982,Medium
32.65,-7.3833,Bni Khloug,1982,High
30.6281,-5.3556,Taghbalt,1982,Medium
30.0861,-6.8736,Foum Zguid,1982,High
33.6167,-3.55,Fritissa,1982,Medium
32.2381,-6.1194,Tagalft,1982,Medium
35.0228,-4.1408,Bni Hadifa,1982,Medium
30.9167,-6.9167,Warzat,1982,Medium
34.55,-4.8,Galaz,1982,Low
31.4175,-8.4117,Gammasa,1982,Medium
31.3514,-7.9508,Tahannawt,1982,High
30.7047,-8.8819,Tafraoutane,1982,High
30.9903,-8.1772,Talat-n-Ya'qoub,1982,Medium
34.8119,-4.1581,Et Tnine des Beni Ammart,1982,Low
33.2566,-8.5025,El Jadid,1982,Medium
34.0419,-5.9272,El Kansera,1982,Medium
33.7601,-5.4866,Bou Fekrane,1982,Medium
31.3833,-8.3833,Tamazouzt,1982,Medium
32.05,-7.4,El Kelaa des Srarhna,1982,High
31.0833,-9.6756,Tamanar,1982,Medium
32.4442,-6.955,El Khemis des Beni Chegdal,1982,Medium
32.5681,-6.0308,El Ksiba,1982,High
32.9,-6.7833,Bou Djeniba,1982,High
31.8288,-7.5262,Tamallalt,1982,High
33.9342,-4.7381,Aghbalou Aqourar,1982,Medium
29.8502,-9.6575,El Maader El Kabir,1982,Medium
31.2938,-7.176,Talwat,1982,High
31.6281,-6.9444,Tifni,1982,High
30.5167,-6.8167,Aghbar,1982,Medium
30.2167,-8.3833,Wislane,1982,Medium
32.531,-1.9631,Bou Arfa,1982,Medium
32.0989,-7.3861,El Marmouta,1982,High
32.5353,-3.4481,Talsint,1982,Medium
34.0142,-5.4619,El Meghassine,1982,Medium
31.7611,-5.3169,Aghbalou n'Kerdous,1982,High
33.1119,-7.4058,Bou Ahmed,1982,Medium
33.8389,-4.5458,El Menzel,1982,Medium
31.9319,-4.4244,Errachidia,1982,Medium
30.5328,-7.9256,Taliwine,1982,Medium
32.2044,-8.5608,Esbiaat,1982,Medium
31.2357,-8.7278,Znada,1982,Medium
35.1483,-3.5478,Taliouine,1982,Low
34.5428,-4.5075,Bou Adel,1982,Low
31.513,-9.7687,Essaouira,1982,Medium
33.75,-7.3,El Mansouria,1982,Medium
30.7467,-7.9258,Iguidiy,1982,Medium
35.0675,-4.4242,Bni Gmil,1982,Medium
29.7167,-8.9667,Tafraout,1982,Medium
31.8017,-4.9673,Tadighoust,1982,High
33.9831,-4.6397,Bir Tam Tam,1982,Medium
29.3885,-9.9607,Tourza,1982,Medium
31.6581,-6.42,Tabant,1982,Medium
34.8333,-2.8667,Hassi Berkane,1982,Medium
32.8403,-6.8025,Hetane,1982,High
33.9856,-4.8931,Ain Bida,1982,Medium
23.8883,-14.5306,Bir Anzarane,1982,Low
35.3646,-4.9306,Steha,1982,Medium
35.067,-3.967,Iaboutene,1982,Low
35.2544,-3.115,Iazizatene,1982,Medium
34.9353,-2.4306,Station des Essais M.V.A.,1982,Low
31.0961,-9.17,Ichemrarn,1982,Medium
30.2144,-9.3708,Biougra,1982,Medium
34.222,-6.511,Haddada,1982,Medium
31.1533,-9.7333,Ida Ou Azza,1982,Medium
33.8833,-5.0333,Ain Cheggag,1982,Medium
30.6377,-8.6315,Ida Ou Gailal,1982,High
33.5911,-7.2792,Souq Jamaa Fdalate,1982,Medium
30.5983,-9.0025,Ida Ou Moumene,1982,Medium
32.35,-8.5333,Zirara,1982,Medium
32.1083,-6.475,Bine Al Widane,1982,Medium
33.5333,-5.1167,Ifrane,1982,Medium
31.4167,-7.65,Ighil,1982,High
32.9833,-7.1333,Souq at Tlata des Loulad,1982,High
32.4773,-5.1348,Tounfit,1982,High
33.8111,-6.7922,Ain El Aouda,1982,Medium
30.7185,-9.2101,Bigoudine,1982,Medium
31.2282,-7.4237,Ighrem n'Ougdal,1982,High
34.6211,-6.1336,Souk Tlet El Gharb,1982,Low
32.7772,-8.6433,Souq Sebt Says,1982,High
34.6245,-4.9112,Ghafsai,1982,Low
31.8325,-6.1056,Zawyat Ahancal,1982,Medium
35.0728,-4.0706,Bni Abdellah,1982,Medium
35.5153,-5.9306,Gharbia,1982,Low
34.9514,-2.1025,Ahfir,1982,Low
27.4181,-12.9869,Uad Damran,1982,Low
31.1697,-6.8042,Ghassat,1982,Medium
34.625,-5.1242,Tafrant,1982,Medium
34.3819,-4.3761,Bni Frassen,1982,Medium
34.4667,-5.3,Ghouazi,1982,Medium
30.7667,-8.3833,Tafingoult,1982,Medium
33.2833,-7.2,Ahlaf,1982,Medium
31.6944,-4.9592,Goulmima,1982,High
34.8281,-1.9936,Bni Drar,1982,Low
32.3375,-4.0761,Gourrama,1982,High
32.9608,-7.9222,Gtarna,1982,High
30.645,-5.8386,Tafetchna,1982,Medium
31.45,-7.4,Had Zraqtane,1982,High
28.9833,-10.0667,Guelmim,1982,High
31.5853,-9.2519,Tafetachte,1982,High
34.4833,-4.7,Ain Aicha,1982,Medium
34.4836,-2.0456,Guenfouda,1982,Low
34.23,-3.36,Guercif,1982,Medium
35.0192,-3.5684,Tafersit,1982,Low
31.8189,-5.7718,Tilmi,1982,High
35.72,-5.894,Gueznaia,1982,Low
35.0675,-4.3206,Bni Boufrah,1982,Medium
31.5833,-9.5333,Had Dra,1982,Medium
31.0958,-9.8208,Tafadna,1982,Medium
34.6167,-5.7333,Had Kourt,1982,Medium
31.585,-8.607999999999999,Ain Beida,1982,High
32.6128,-8.2256,Had Laaounate,1982,High
32.4408,-8.3708,Tadla,1982,High
35.0563,-5.0688,Bni Darkoul,1982,Medium
32.3528,-7.3245,Sidi El Hattab,1982,High
30.1702,-7.9234,Azrar,1982,High
32.6314,-8.4147,Laatatra,1982,High
32.7333,-9.0167,Oualidia,1982,Medium
31.2842,-4.2642,Recani,1982,High
35.1575,-3.0017,Zeghanghane,1982,Medium
31.8667,-6.75,Ouaoula,1982,High
34.7833,-4.9333,Ratba,1982,Low
35.0167,-4.5167,Ouaouzgane,1982,Medium
32.75,-4.4667,Amersid,1982,High
35.0708,-3.4217,Ouardana,1982,Medium
34.0,-4.7167,Ras Tabouda,1982,Medium
34.2,-4.2833,Oued Amlil,1982,Medium
31.48,-6.94,Ait Tamlil,1982,Medium
35.1333,-2.4167,Ras Kebdana,1982,Low
29.9,-7.3167,Tissint,1982,Medium
31.5617,-8.8944,Amdel,1982,High
30.5308,-9.3283,Ameskroud,1982,Medium
34.9333,-5.85,Oued El Makhazine,1982,Medium
33.7833,-5.7167,Ras Ijerri,1982,Medium
31.5147,-5.5328,Tineghir,1982,High
35.45,-5.0833,Oued Laou,1982,Medium
31.05,-7.2167,Amarzgane,1982,High
33.7333,-5.5833,Ait Yaazem,1982,Medium
33.0167,-7.3333,Oued Naanaa,1982,Medium
34.3903,-4.5072,Ras El Oued,1982,Medium
32.86,-6.56,Oued Zem,1982,High
34.0253,-6.8361,Rabat,1982,Medium
34.8,-5.6,Ouezzane,1982,Medium
30.2778,-6.8292,Alougoum,1982,High
30.5119,-8.7978,Ait Yazza,1982,High
31.1755,-8.0782,Ouirgane,1982,Medium
32.6,-6.26,Qasbat Tadla,1982,High
33.9333,-5.3667,Oued Jdida,1982,Medium
31.1169,-5.1737,Alnif,1982,Medium
31.45,-5.55,Ouaklim Oukider,1982,Medium
29.5716,-9.6972,Reggada,1982,Medium
30.4833,-9.6333,Aourir,1982,High
29.5875,-9.4063,Tiyghmi,1982,Medium
32.2833,-9.2333,Safi,1982,Medium
33.9375,-6.2544,Mqam at Tolba,1982,Medium
33.1667,-5.5667,Mrirt,1982,Medium
35.6633,-5.4886,Saddina,1982,Low
30.6333,-8.05,Anazzou,1982,Medium
32.8467,-7.1319,Mrizig,1982,High
31.5644,-7.6628,Ait Ourir,1982,High
31.7025,-5.8119,Msemrir,1982,High
33.8201,-7.0334,Sabbah,1982,Medium
33.4467,-7.3283,Mwaline al Oued,1982,Medium
35.2385,-4.7943,Amtar,1982,Medium
33.8969,-5.3611,Sabaa Aiyoun,1982,Medium
31.9167,-6.7167,Ait Tagalla,1982,High
31.5,-5.035,Tinajdad,1982,High
34.8422,-5.6842,Mzefroune,1982,Medium
32.2269,-4.6475,Mzizal,1982,High
31.6258,-8.1028,Sa'ada,1982,High
31.21,-8.1834,Amrharas,1982,Medium
35.1667,-2.9333,Nador,1982,Low
31.4458,-9.4383,Ait Said,1982,Medium
32.9572,-7.0731,Nkheila,1982,High
33.5581,-7.4858,Tit Mellil,1982,Medium
35.1403,-4.1347,Rouadi,1982,Medium
30.8722,-5.8639,Nkob,1982,Medium
31.21,-8.25,Amizmiz,1982,Medium
33.8184,-4.4106,Ribat Al Khayr,1982,Medium
34.0981,-5.4161,Nzalat Bni Amar,1982,Medium
32.0806,-7.93,Nzalat Laadam,1982,High
31.5339,-8.2672,Zemrane,1982,High
34.0559,-5.5183,Moulay Driss Zerhoun,1982,Medium
33.4,-3.5833,Tissaf,1982,Medium
31.2414,-6.1283,Qal'at Mgouna,1982,Medium
32.5,-6.7,Al Fqih Ben Calah,1982,High
32.9667,-8.2333,Oulad Fraj,1982,High
31.875,-7.4217,Oulad Zarrad,1982,High
31.8667,-7.65,Akarma,1982,High
32.6108,-7.625,Oulad Friha,1982,High
32.3412,-6.3725,Oulad Hamdane,1982,Medium
32.4167,-6.3333,Oulad Yaich,1982,Medium
30.6167,-8.2167,Al Fayd,1982,Medium
33.25,-8.3347,Oulad Hammou,1982,High
32.6215,-8.7022,Zemamra,1982,High
29.7,-9.0667,Tiqqi,1982,Medium
30.4,-9.21,Oulad Teima,1982,Medium
31.6503,-7.8361,Oulad Hassoune,1982,High
32.5,-7.2,Al Brouj,1982,High
35.5167,-5.9333,Oulad Fares,1982,Low
32.0333,-7.7167,Oulad Imloul,1982,High
33.9598,-4.9954,Oulad Tayeb,1982,Medium
34.8407,-2.3543,Zegzel,1982,Low
34.7167,-2.5833,Oulad Khallouf,1982,Medium
32.7775,-7.7725,Oulad Slim,1982,High
32.1883,-7.1808,Oulad Messaoud,1982,High
35.0104,-3.0073,Al Aaroui,1982,Medium
33.7333,-7.2,Oulad Sbih,1982,Medium
35.0939,-5.9453,Oulad Ouchchih,1982,Low
34.9167,-2.4333,Aklim,1982,Low
32.9175,-7.2652,Oulad Rahal,1982,High
34.3356,-6.4603,Oulad Salmane,1982,Medium
34.4542,-1.8986,Tiouli,1982,Low
32.3278,-6.5006,Oulad Rahmoun,1982,Medium
29.3908,-8.2564,Akka,1982,Low
29.9919,-7.5322,Akka Irene,1982,Medium
34.69,-1.91,Oujda-Angad,1982,Low
35.19300000000001,-3.912,Ajdir,1982,Low
32.35,-6.6333,Oulad Zemam,1982,Medium
30.558000000000003,-8.613999999999999,Oulad Aissa,1982,High
35.25,-3.65,Oulad Amghar,1982,Low
32.1433,-5.3503,Outerbat,1982,High
35.2167,-5.9667,Oulad Amrane el Mekki,1982,Low
32.7419,-5.5231,Al Qbab,1982,High
31.9833,-5.7833,Ait Youssef Ou Ali,1982,High
32.2833,-9.2333,Oulad Amrane,1982,Medium
33.3456,-3.6939,Outat Oulad Al Haj,1982,Medium
32.3333,-6.3833,Oulad Ayyad,1982,Medium
33.4,-3.7167,Al Orjane,1982,Medium
30.6388,-8.4732,Oulad Barhil,1982,Medium
34.2606,-4.4139,Outa Bouabane,1982,Medium
33.2692,-7.2678,Oulad Ben Sebbah,1982,Medium
31.4903,-4.4014,Aj Jourf,1982,High
32.2878,-6.4328,Oulad Embarek,1982,Medium
32.2953,-6.6669,Oulad Bou Rahmoun,1982,Medium
33.7039,-6.34,Al M'aziz,1982,Medium
33.05,-7.3833,Oulad Chbana,1982,Medium
31.5336,-9.5536,Ounagha,1982,Medium
31.7667,-7.7833,Oulad Cherif,1982,High
32.3333,-7.75,Oulad Cherki,1982,High
33.81,-6.06,Al Khmissat,1982,Medium
33.8808,-6.7858,Oum Azza,1982,Medium
32.7822,-5.6517,Tirhassaline,1982,High
32.8544,-7.5386,Oulad Chikh,1982,High
30.6167,-7.75,Tinzart,1982,Medium
35.2472,-3.9322,Al Hoceima,1982,Low
33.4167,-6.0167,Oulmes,1982,Medium
34.4058,-4.6939,Oulad Daoud,1982,Medium
31.9536,-8.2053,Oulad Driss,1982,High
34.55,-4.9333,Ourtzagh,1982,Low
32.7128,-5.8042,Ait Ouaoumana,1982,High
33.7897,-6.4986,Moulay Driss Aghbal,1982,Medium
34.5581,-6.0078,Safsaf,1982,Low
32.4333,-7.4333,Laqraqra,1982,High
34.7992,-5.8394,Sidi Amer El Hadi,1982,Medium
30.7,-8.15,Awlouz,1982,Medium
35.1833,-6.15,Larache,1982,Low
34.5197,-6.3236,Sidi Allal Tazi,1982,Low
26.5404,-13.8477,Lemsid,1982,Medium
31.35,-5.3,Ait el Farsi,1982,Medium
31.6507,-8.3021,Loudaya,1982,High
31.7,-4.1167,Awfouss,1982,Medium
33.983000000000004,-6.417000000000002,Sidi Allal el Bahraoui,1982,Medium
29.1228,-9.5992,Timoulay Izder,1982,Medium
30.2942,-9.4544,Lqoliaa,1982,Medium
35.6857,-5.3251,M'diq,1982,Low
31.5058,-7.7161,Ait Faska,1982,High
35.0656,-6.0939,Laouamra,1982,Low
31.9458,-5.2083,Assoul,1982,High
33.8536,-6.0597,Sidi al Ghandour,1982,Medium
34.7625,-3.7953,Tizi Ouzli,1982,Medium
35.7333,-5.6333,Malloussa,1982,Low
32.5167,-7.3833,Sidi Ahmed El Khadir,1982,High
31.6295,-7.9811,Marrakech,1982,High
35.1333,-3.0833,Assebbab,1982,Medium
35.61,-5.27,Martil,1982,Low
34.7114,-5.815,Sidi Ahmed Ben Aissa,1982,Medium
34.7861,-5.7078,Masmouda,1982,Medium
33.2106,-2.5564,Matarka,1982,Medium
31.3942,-8.7725,Ait Hadi,1982,Medium
30.5981,-7.6523,Assays,1982,Medium
34.0019,-5.3694,Sidi Abdellah Ben Taazizt,1982,Medium
34.1,-4.55,Matmata,1982,Medium
35.0103,-2.337,Madagh,1982,Low
33.045,-7.9292,Zawyat Sidi Ben Hamdoun,1982,Medium
31.7667,-7.6667,Sidi Azzouz,1982,High
31.5456,-8.2967,Ayt 'Attou ou L'Arbi,1982,High
33.05,-7.1833,Sidi Dahbi,1982,Medium
27.15,-13.2,Laayoune,1982,Low
31.96,-6.56,Aziylal,1982,High
30.9925,-7.8167,Tizoual,1982,Medium
33.2122,-7.7164,Zawyat Sidi al Mekki,1982,Medium
31.6345,-7.644,Ait Ben Daoudi,1982,High
35.7333,-5.8833,Laghdir,1982,Low
31.7453,-8.7069,Sidi Chiker,1982,High
33.1914,-7.6701,Laghzawna,1982,Medium
30.57,-8.4878,Lahfayr,1982,Medium
31.35,-7.5,Azgour,1982,High
34.5628,-5.3621,Sidi Bousber,1982,Medium
31.0336,-9.1392,Timlilt,1982,Medium
34.8819,-4.2803,Zerkat,1982,Low
29.7,-9.7269,Tiznit,1982,Medium
32.9139,-7.7019,Lahouarta,1982,High
31.9033,-7.9422,Sidi Bou Othmane,1982,High
34.85,-6.0669,Lalla Mimouna,1982,Low
33.2833,-8.3333,Azemmour,1982,High
31.3669,-8.1331,Lalla Takerkoust,1982,Medium
30.2333,-9.5333,Sidi Bibi,1982,High
33.2,-7.5,Lambarkiyine,1982,Medium
35.1033,-3.8383,Ait Bouchta,1982,Low
32.5667,-6.9833,Ayt Mohamed,1982,High
33.5667,-6.8936,Sidi Bettach,1982,Medium
32.0247,-8.9153,Lamrasla,1982,Medium
31.7917,-7.0926,Ait Bousarane,1982,High
32.2933,-8.6889,Lamsabih,1982,Medium
32.655,-8.4292,Sidi Bennour,1982,High
31.5833,-8.4833,Lamzoudia,1982,High
33.0333,-7.05,Lakhzazra,1982,Medium
33.1869,-7.2333,Sidi Abdelkarim,1982,Medium
32.2719,-7.525,Mayate,1982,High
30.9131,-9.2439,Assais,1982,Medium
31.5319,-4.8061,Milla'ab,1982,High
32.1167,-9.0833,Sebt Gzoula,1982,Medium
34.9,-5.9167,Arbaoua,1982,Medium
29.5782,-10.034,Mirleft,1982,Medium
32.4403,-4.7114,Zawyat Sidi Hamza,1982,High
33.05,-3.9908,Missour,1982,Medium
35.25,-5.8333,Sebt Bni Garfett,1982,Low
34.7667,-5.5167,Mnasra,1982,Medium
34.05,-6.8167,Sale,1982,Medium
34.4167,-6.4333,Mograne,1982,Medium
29.5993,-9.877,Arbaa Sahel,1982,Medium
30.3342,-9.4972,Ait Melloul,1982,Medium
33.6833,-7.3833,Mohammedia,1982,Medium
35.383,-5.8333,Arbaa Ayacha,1982,Low
31.8514,-6.9658,Ait Majdane,1982,High
34.6167,-3.4167,Saka,1982,Medium
35.085,-2.2392,Saidia,1982,Low
30.9908,-9.7994,Timzguida Ouftas,1982,Medium
31.0,-7.15,Tizagzawine,1982,High
32.5228,-8.9986,Moul El Bergui,1982,High
33.1978,-8.5883,Moulay Abdallah,1982,Medium
34.4,-4.7167,Moulay Abdelkader,1982,Medium
30.0297,-9.2478,Ait Ouakrim,1982,Medium
30.5035,-8.6064,Arazane,1982,High
31.3442,-8.7053,Saidat,1982,Medium
33.2565,-6.1319,Moulay Bou 'azza,1982,Medium
34.8786,-6.2933,Moulay Bousselham,1982,Low
34.9667,-4.55,Sahel,1982,Low
33.5333,-6.6,Ar Rommani,1982,Medium
31.65,-9.6833,Moulay Bouzarqtoune,1982,Medium
34.91,-5.3536,Mokrisset,1982,Medium
31.4361,-4.2328,Arfoud,1982,High
33.83,-4.83,Sefrou,1982,Medium
34.95,-3.5333,Midar,1982,Medium
32.5783,-7.8108,Sidi Abdallah,1982,High
34.7233,-2.7918,Mechra-Hommadi,1982,Medium
32.2156,-8.1733,Ait Hammou,1982,High
34.5787,-5.962999999999999,Mechraa Bel Ksiri,1982,Medium
33.8897,-6.1503,Sidi 'Allal al Mcader,1982,Medium
33.45,-7.51,Mediouna,1982,Medium
31.25,-7.9792,Asni,1982,High
32.4667,-5.7667,Tizi Nisly,1982,High
33.9322,-4.0456,Meghraoua,1982,Medium
34.8167,-3.7286,Sidi 'Ali Bou Aqba,1982,Medium
34.2557,-6.6745,Mehdya,1982,Medium
32.7342,-7.2033,Sgamna,1982,High
32.2,-6.4667,Timoulilt,1982,Medium
31.7483,-5.5735,Ait Hani,1982,High
30.7687,-7.7729,Askawn,1982,Medium
31.55,-9.35,Mejji,1982,High
33.8833,-5.55,Meknes,1982,Medium
32.68,-4.74,Midalt,1982,High
29.8222,-5.7208,Mhamid el Rhozlane,1982,Medium
35.1169,-3.4917,Mhajar,1982,Medium
35.0708,-2.9392,Selouane,1982,Low
33.5667,-5.65,Ait Ikkou,1982,Medium
35.4136,-5.0694,Tizgane,1982,Medium
32.4817,-5.6427,Aghbala,1982,High
35.4667,-6.0333,Asilah,1982,Low
34.5019,-3.6428,Mezguitem,1982,Medium
34.4868,-2.6883,Mestigmer,1982,Low
33.0023,-7.6198,Settat,1982,Medium
34.5667,-3.0167,Melqa el Ouidane,1982,Medium
34.85,-5.6167,Asjen,1982,Medium
31.2256,-7.6758,Setti Fatma,1982,High
26.7333,-11.6833,Semara,1982,Low
31.5,-8.1,Tameslouht,1982,High
32.632,-8.8456,Oulad Said,1982,High
30.4167,-9.5833,Agadir,1982,High
28.0167,-9.3333,Zag,1982,Medium
31.6043,-8.4688,Douar Hammadi,1982,High
34.1667,-5.5333,Zaggota,1982,Medium
35.2167,-5.6667,Za'roura,1982,Low
32.4333,-6.1833,Tarhzirt,1982,Medium
31.3738,-5.9956,Boumalne,1982,Medium
33.5667,-6.2658,Tiddas,1982,Medium
32.4167,-7.1,Douar Ouled Ayad,1982,High
30.61,-8.01,Tazarine,1982,Medium
32.2064,-7.2431,El Amim,1982,High
32.1114,-5.5197,Bou Zemou,1982,High
34.5922,-4.5492,Bourdoud,1982,Low
31.5617,-8.8944,Douar Oulad Bou Krae El Fouqani,1982,High
32.2083,-6.5403,Afourar,1982,Medium
35.1797,-3.7714,Douar Trougout,1982,Low
31.9053,-7.2144,'Ali Ben Sliman,1982,High
30.5736,-7.2028,Taznakht,1982,High
34.4833,-5.1167,Zaouiat Moulay Bouchta El Khammar,1982,Medium
29.0565,-9.428,Tarhjicht,1982,Medium
34.7667,-5.8333,Douar Ezzerarda,1982,Medium
34.1889,-5.9697,Dar Bel Hamri,1982,Medium
34.9333,-4.7833,Tamorot,1982,Low
34.5853,-2.5056,El Aioun,1982,Medium
32.0697,-7.2142,Douar Oulad Amer,1982,High
31.0061,-9.4042,El Arba Bouzemmour,1982,Medium
32.2567,-6.7839,Douar Oulad Aj-jabri,1982,Medium
30.8075,-7.7883,Tazoult,1982,Medium
31.9505,-3.5973,Boudenib,1982,High
35.5667,-5.3667,Tetouan,1982,Low
30.3316,-5.8376,Zagora,1982,Medium
34.5358,-4.64,Taounate,1982,Low
34.9396,-2.7334,Zaio,1982,Medium
23.7141,-15.9368,Ad Dakhla,1982,Low
32.2536,-8.3972,Douar Oulad Amer Leqliaa,1982,High
35.1167,-5.2833,Derdara,1982,Medium
34.3272,-4.2039,El Arba Des Bir Lenni,1982,Medium
30.2612,-5.682,Tamgrout,1982,Medium
35.0639,-5.2025,Taza,1982,Medium
35.2631,-5.5453,Douar Tazrout,1982,Low
34.9667,-5.5833,Brikcha,1982,Medium
32.1667,-7.6333,Douar Sgarta,1982,High
35.1114,-5.7822,Boujediane,1982,Low
34.7667,-6.05,Chouafaa,1982,Low
34.45,-4.2972,Douar Brarba,1982,Medium
31.1,-8.4833,Adassil,1982,Medium
31.8667,-6.95,Tanant,1982,High
32.2,-7.3,Chtiba,1982,High
34.4936,-5.7108,Douar Oulad Naoual,1982,Medium
31.7311,-7.0361,Demnat,1982,High
34.6667,-5.2667,Teroual,1982,Medium
32.7931,-8.6506,Zaouiet Says,1982,High
34.5019,-4.1567,Douar El Gouzal,1982,Low
30.9069,-3.9958,Taouz,1982,Medium
33.0681,-8.5108,Douar Oulad Hssine,1982,Medium
32.0275,-3.0397,Bou'nane,1982,Medium
28.4333,-11.1,Tan-Tan,1982,Low
29.5283,-9.8044,Bounaamane,1982,Medium
32.3167,-6.9,Dar Ould Zidouh,1982,Medium
29.6919,-7.9856,Adis,1982,Medium
31.6597,-7.4092,Tazert,1982,High
32.0705,-8.6532,Echemmaia Est,1982,Medium
35.1203,-3.3322,Dar El Kebdani,1982,Medium
31.8697,-7.3097,Dzouz,1982,High
29.5333,-8.85,Tamsaout,1982,Medium
30.3633,-9.4144,Temsia,1982,Medium
34.2833,-4.3167,Douar Oulad Mbarek,1982,Medium
27.9133,-12.9317,Tarfaya,1982,Low
32.3011,-7.2053,Douar Oulad Jaber,1982,High
31.6,-7.85,Ech Chaibat,1982,High
31.8,-7.14,Ac-cahrij,1982,High
34.1333,-4.4,Bouhlou,1982,Medium
34.3833,-5.0167,Bouchabel,1982,Medium
34.2167,-5.35,Douar Echbanat,1982,Medium
33.4489,-7.6486,Bouskoura,1982,Medium
32.76,-5.7233,Zaouia Ait Ishak,1982,High
32.5703,-8.1217,Douar Oulad Boussaken,1982,High
35.1091,-5.4577,Tanakoub,1982,Medium
35.1223,-3.6373,Temsamane,1982,Low
35.6264,-5.3414,Douar El Mellaliyine,1982,Low
33.9,-6.33,Tiflet,1982,Medium
34.41,-2.89,Taourirt,1982,Low
32.76,-6.4,Boujad,1982,High
30.7,-9.8333,Tamri,1982,Medium
33.7894,-7.1597,Bouznika,1982,Medium
32.0242,-7.2811,Douar Drissiine,1982,High
29.176,-9.714,Bou Izakarn,1982,Medium
30.4083,-8.8269,Tazemmourt,1982,Medium
32.55,-7.5,Dar Chaifat,1982,High
34.9833,-3.3833,Driouch,1982,Medium
34.9402,-4.3208,Targuist,1982,Low
33.05,-2.0,Tendrara,1982,Low
34.2083,-5.0522,Douar Oulad Bouziane,1982,Medium
30.6978,-6.4497,Agdz,1982,Medium
33.8136,-4.5169,Douar Oulad Mkoudou,1982,Medium
23.6111,-15.8583,El Aargub,1982,Low
34.8032,-5.3446,Zoumi,1982,Medium
35.2001,-3.6429,Boudinar,1982,Low
31.2655,-9.1786,Bouabout,1982,Medium
30.4711,-8.8778,Taroudannt,1982,Medium
34.4228,-6.089,Douar el Caid el Gueddari,1982,Medium
34.0889,-2.0247,'Ayn Bni Mathar,1982,Low
34.1245,-6.747999999999998,Bouknadel,1982,Medium
31.4667,-7.6167,Tidili Masfiywat,1982,High
34.5406,-4.7294,Douar Mezaoura,1982,Low
34.9382,-2.1455,Aghbal,1982,Low
33.6928,-5.3711,El Hajeb,1982,Medium
31.2167,-9.0833,Taouloukoult,1982,Medium
30.8075,-6.1142,Tamezmout,1982,Medium
32.3567,-5.835,Bou Iferda,1982,High
30.2249,-7.796,Agadir Melloul,1982,High
32.28,-8.31,Douar Lehouifrat,1982,High
26.0928,-10.6089,Tifariti,1982,Low
34.2803,-4.5336,Douar Messassa,1982,Medium
34.6519,-4.2786,Dhar Souk,1982,Low
32.8625,-8.0611,Boula'wane,1982,High
33.5992,-7.62,Casablanca,1982,High
34.7167,-5.1333,Douar Tabouda,1982,Medium
29.7428,-7.9725,Tata,1982,Medium
31.1386,-9.6092,Douar Tassila Imassouane,1982,Medium
34.8167,-5.8167,Douar Lamrabih,1982,Medium
34.3539,-2.6255,Tancherfi,1982,Low
35.1714,-5.2697,Chefchaouene,1982,Medium
32.8739,-8.8589,Douar Olad. Salem,1982,High
31.5792,-7.3131,Abadou,1982,High
35.0717,-5.5703,Douar Souk L`qolla,1982,Low
35.5317,-5.2885,Douar Azla,1982,Low
35.0339,-5.7706,Tatoufet,1982,Low
35.7767,-5.8039,Tangier,1982,Low
33.9234,-6.9076,Temara,1982,Medium
34.1014,-4.2939,Douar Bouchfaa,1982,Medium
31.7547,-9.3717,Zaouiat Sidi Hammou Ben Hmida,1982,High
35.5099,-5.2263,Douar Tassift,1982,Low
31.8878,-7.4411,Douar Jwalla,1982,High
34.7344,-4.0947,Boured,1982,Low
32.0331,-9.1625,El Ghiate,1982,Medium
32.25,-8.53,Youssoufia,1982,Medium
32.55,-8.7167,Douar Lehgagcha,1982,High
33.95,-4.45,Douar 'Ayn Dfali,1982,Medium
33.4167,-7.5333,Ad Darwa,1982,Medium
34.9833,-4.9167,Boureit,1982,Low
32.34,-8.7728,El Ghourdane,1982,Medium
32.0944,-6.6025,Tawnza,1982,Medium
21.61,-15.0,Tichla,1982,Low
35.0764,-4.2167,Douar Snada,1982,Medium
31.5333,-8.7667,Chichaoua,1982,High
33.366,-4.7330000000000005,Boulemane,1982,Medium
34.3667,-4.8167,Bouarouss,1982,Medium
33.2833,-5.3833,'Ain Leuh,1982,Medium
33.6667,-4.6333,Tazouta,1982,Medium
33.5667,-6.2658,Tiddas,1983,Low
32.0308,-8.7894,Jnane Bouih,1983,Low
32.0242,-7.2811,Douar Drissiine,1983,Low
35.1667,-2.9333,Nador,1983,Low
31.2156,-9.5461,Imi n-Tlit,1983,Low
34.7344,-4.0947,Boured,1983,Low
34.41,-2.89,Taourirt,1983,Low
31.177,-8.8504,Imi-n-Tanout,1983,Low
34.6833,-5.45,Sidi Redouane,1983,Low
34.31,-2.16,Jerada,1983,Low
34.26,-5.93,Sidi Slimane,1983,Low
33.6667,-4.6333,Tazouta,1983,Medium
31.0672,-6.5397,Skoura,1983,Low
32.5228,-8.9986,Moul El Bergui,1983,Low
34.5,-4.55,Ain Mediouna,1983,Low
32.3394,-6.3608,Beni Mellal,1983,Low
34.4,-4.7167,Moulay Abdelkader,1983,Medium
33.0939,-7.0519,Jemaat Oulad Mhamed,1983,Low
30.5035,-8.6064,Arazane,1983,Low
35.7767,-5.8039,Tangier,1983,Low
31.3442,-8.7053,Saidat,1983,Low
33.1978,-8.5883,Moulay Abdallah,1983,Low
31.3094,-6.4992,Imi n'Oulaoun,1983,Low
31.5792,-7.3131,Abadou,1983,Low
30.3342,-9.4972,Ait Melloul,1983,Low
34.3833,-5.0167,Bouchabel,1983,Medium
35.37,-5.97,Tnine Sidi Lyamani,1983,Low
30.8722,-5.8639,Nkob,1983,Low
33.6372,-7.4483,Ain Harrouda,1983,Low
34.7667,-5.95,Kariat Ben Aouda,1983,Low
32.3011,-7.2053,Douar Oulad Jaber,1983,Low
33.6833,-7.3833,Mohammedia,1983,Low
30.3316,-5.8376,Zagora,1983,Low
34.4167,-6.4333,Mograne,1983,Low
35.1333,-3.0333,Iksane,1983,Low
34.6167,-3.4167,Saka,1983,Low
35.2569,-2.9342,Beni Enzar,1983,Low
29.6919,-7.9856,Adis,1983,Low
28.0167,-9.3333,Zag,1983,Low
32.475,-6.1497,Kasba Tanora,1983,Low
32.0333,-6.2,Tilougguit,1983,Low
33.4725,-7.9617,Sidi Rahal,1983,Low
35.2001,-3.6429,Boudinar,1983,Low
33.95,-4.45,Douar 'Ayn Dfali,1983,Medium
30.1675,-9.2322,Imi Mokorn,1983,Low
31.6667,-7.4833,Sidi Rahhal,1983,Low
35.65,-5.6833,Jouamaa,1983,Low
31.2136,-9.7058,Smimou,1983,Low
34.91,-5.3536,Mokrisset,1983,Low
32.9572,-7.0731,Nkheila,1983,Low
35.085,-2.2392,Saidia,1983,Low
31.4458,-9.4383,Ait Said,1983,Low
31.6597,-7.4092,Tazert,1983,Low
34.8614,-2.021,Beni Khaled,1983,Low
34.2167,-5.35,Douar Echbanat,1983,Medium
35.1167,-5.95,Souakene,1983,Low
33.9333,-5.2167,Ain Taoujdat,1983,Medium
34.2833,-4.3167,Douar Oulad Mbarek,1983,Medium
32.0833,-7.05,Bezou,1983,Low
31.21,-8.25,Amizmiz,1983,Low
34.3631,-5.2123,Karia Ba Mohamed,1983,Medium
30.9069,-3.9958,Taouz,1983,Low
35.383,-5.8333,Arbaa Ayacha,1983,Low
35.1403,-4.1347,Rouadi,1983,Low
31.2167,-9.0833,Taouloukoult,1983,Low
33.8136,-4.5169,Douar Oulad Mkoudou,1983,Medium
30.674,-9.5624,Imouzzer des Ida ou Tanane,1983,Low
33.9375,-6.2544,Mqam at Tolba,1983,Low
31.5339,-7.4872,Touama,1983,Low
32.4403,-4.7114,Zawyat Sidi Hamza,1983,Low
35.1833,-4.0,Izmorene,1983,Low
33.8969,-5.3611,Sabaa Aiyoun,1983,Medium
34.45,-4.2972,Douar Brarba,1983,Medium
35.1069,-3.0656,Beni Sidal Louta,1983,Low
32.8808,-5.0542,Itzer,1983,Low
35.4333,-5.4,Zinat,1983,Low
32.3037,-3.9861,Toulal,1983,Low
30.5736,-7.2028,Taznakht,1983,Low
33.3611,-7.6114,Zawyat an Nwacer,1983,Low
34.21,-5.7,Sidi Qacem,1983,Low
34.15,-4.8314,Ain Kansara,1983,Medium
35.0764,-4.2167,Douar Snada,1983,Low
33.4467,-7.3283,Mwaline al Oued,1983,Low
32.4167,-7.1,Douar Ouled Ayad,1983,Low
30.4969,-8.8211,Sidi Yahia,1983,Low
32.7128,-5.8042,Ait Ouaoumana,1983,Low
33.8261,-6.9039,Sidi Yahya Zaer,1983,Low
34.5358,-4.64,Taounate,1983,Low
35.1448,-3.8505,Imzouren,1983,Low
32.8467,-7.1319,Mrizig,1983,Low
35.2385,-4.7943,Amtar,1983,Low
34.1014,-4.2939,Douar Bouchfaa,1983,Medium
31.7025,-5.8119,Msemrir,1983,Low
31.6706,-8.3456,Sidi Zouine,1983,Low
31.6667,-7.0667,Sidi Yakoub,1983,Low
33.8201,-7.0334,Sabbah,1983,Low
30.3658,-9.5381,Inezgane,1983,Low
30.5047,-5.8563,Beni Zouli,1983,Low
35.6633,-5.4886,Saddina,1983,Low
33.6681,-7.2514,Beni Yakhlef,1983,Low
30.8434,-9.8186,Iskourane,1983,Low
33.7215,-5.0083,Imouzzer Kandar,1983,Medium
35.5317,-5.2885,Douar Azla,1983,Low
34.1667,-4.5,Ain Legdah,1983,Medium
30.6333,-8.05,Anazzou,1983,Low
33.1667,-5.5667,Mrirt,1983,Medium
32.2083,-6.5403,Afourar,1983,Low
31.5145,-8.7555,Jafra,1983,Low
33.85,-7.03,Skhirate,1983,Low
34.0559,-5.5183,Moulay Driss Zerhoun,1983,Low
30.4833,-9.6333,Aourir,1983,Low
34.5949,-2.372,Ain Lehjer,1983,Low
35.0717,-5.5703,Douar Souk L`qolla,1983,Low
31.1097,-8.1336,Imigdal,1983,Low
33.2925,-7.4406,Jaqma,1983,Low
34.9667,-4.55,Sahel,1983,Low
34.4936,-5.7108,Douar Oulad Naoual,1983,Low
32.2269,-4.6475,Mzizal,1983,Low
34.4314,-4.9642,Jbabra,1983,Medium
34.8786,-6.2933,Moulay Bousselham,1983,Low
32.1667,-7.6333,Douar Sgarta,1983,Low
32.8167,-8.5,Sidi Smai'il,1983,Low
34.0263,-5.7949,Ain Jemaa,1983,Low
33.5333,-6.6,Ar Rommani,1983,Low
31.21,-8.1834,Amrharas,1983,Low
32.1154,-8.7587,Jdour,1983,Low
30.0297,-9.2478,Ait Ouakrim,1983,Low
34.9167,-2.3167,Berkane,1983,Low
34.4333,-5.4,Beni Oual Sehira,1983,Medium
33.2565,-6.1319,Moulay Bou 'azza,1983,Low
32.155,-5.6347,Imilchil,1983,Low
33.5881,-6.4264,Jemaat Moul Blad,1983,Low
34.8422,-5.6842,Mzefroune,1983,Low
32.4833,-7.9167,Skhour Rehamna,1983,Low
30.7436,-8.7633,Imoulas,1983,Low
30.9908,-9.7994,Timzguida Ouftas,1983,Low
32.2833,-9.2333,Safi,1983,Low
32.6833,-5.5833,Sidi Yahia Sawad,1983,Low
31.6806,-7.7281,Jaidte Lbatma,1983,Low
33.6122,-7.1211,Benslimane,1983,Low
31.5644,-7.6628,Ait Ourir,1983,Low
33.5581,-7.4858,Tit Mellil,1983,Low
32.3516,-8.8744,Jamaat Shaim,1983,Low
33.7897,-6.4986,Moulay Driss Aghbal,1983,Low
31.9505,-3.5973,Boudenib,1983,Low
31.6258,-8.1028,Sa'ada,1983,Low
34.5922,-4.5492,Bourdoud,1983,Low
34.5897,-4.4514,Beni Oulid,1983,Low
31.65,-9.6833,Moulay Bouzarqtoune,1983,Low
30.8075,-7.7883,Tazoult,1983,Low
34.5581,-6.0078,Safsaf,1983,Low
34.3058,-6.3058,Sidi Yahia El Gharb,1983,Low
33.2517,-5.0259,Timahdit,1983,Low
29.5875,-9.4063,Tiyghmi,1983,Low
33.9,-6.33,Tiflet,1983,Low
34.95,-3.5333,Midar,1983,Low
31.5339,-8.2672,Zemrane,1983,Low
32.4667,-5.7667,Tizi Nisly,1983,Low
32.2567,-6.7839,Douar Oulad Aj-jabri,1983,Low
34.1,-4.55,Matmata,1983,Medium
32.8739,-8.8589,Douar Olad. Salem,1983,Low
35.7333,-5.8833,Laghdir,1983,Low
31.3942,-8.7725,Ait Hadi,1983,Low
34.1667,-5.5333,Zaggota,1983,Low
33.1869,-7.2333,Sidi Abdelkarim,1983,Low
31.35,-7.5,Azgour,1983,Low
33.1914,-7.6701,Laghzawna,1983,Low
33.366,-4.7330000000000005,Boulemane,1983,Medium
34.5628,-5.3621,Sidi Bousber,1983,Low
34.0019,-5.3694,Sidi Abdellah Ben Taazizt,1983,Medium
30.4711,-8.8778,Taroudannt,1983,Low
31.8878,-7.4411,Douar Jwalla,1983,Low
30.57,-8.4878,Lahfayr,1983,Low
33.2106,-2.5564,Matarka,1983,Low
34.8819,-4.2803,Zerkat,1983,Low
31.6345,-7.644,Ait Ben Daoudi,1983,Low
30.5981,-7.6523,Assays,1983,Low
31.9033,-7.9422,Sidi Bou Othmane,1983,Low
32.9139,-7.7019,Lahouarta,1983,Low
34.7861,-5.7078,Masmouda,1983,Low
31.7453,-8.7069,Sidi Chiker,1983,Low
33.2833,-8.3333,Azemmour,1983,Low
27.15,-13.2,Laayoune,1983,Low
32.5783,-7.8108,Sidi Abdallah,1983,Low
31.9117,-7.335,La'tamna,1983,Low
34.8167,-3.7286,Sidi 'Ali Bou Aqba,1983,Low
30.6142,-5.5223,Ait Athmane,1983,Low
31.8944,-8.9842,Laamarna,1983,Low
33.45,-7.51,Mediouna,1983,Low
34.6039,-4.7889,Sidi el Mokhfi,1983,Low
32.4333,-6.1833,Tarhzirt,1983,Low
33.6833,-4.8167,Laanoussar,1983,Medium
32.3528,-7.3245,Sidi El Hattab,1983,Low
31.25,-7.9792,Asni,1983,Low
30.1702,-7.9234,Azrar,1983,Low
34.5787,-5.962999999999999,Mechraa Bel Ksiri,1983,Low
35.1114,-5.7822,Boujediane,1983,Low
35.7167,-5.8,Laaouama,1983,Low
33.8897,-6.1503,Sidi 'Allal al Mcader,1983,Low
34.7233,-2.7918,Mechra-Hommadi,1983,Low
30.07,-9.155,Ait Ban,1983,Low
30.9925,-7.8167,Tizoual,1983,Low
32.2719,-7.525,Mayate,1983,Low
33.05,-7.1833,Sidi Dahbi,1983,Low
32.6314,-8.4147,Laatatra,1983,Low
23.7141,-15.9368,Ad Dakhla,1983,Low
30.9131,-9.2439,Assais,1983,Low
31.96,-6.56,Aziylal,1983,Low
33.4167,-7.5333,Ad Darwa,1983,Low
33.0333,-7.05,Lakhzazra,1983,Low
35.61,-5.27,Martil,1983,Low
32.2933,-8.6889,Lamsabih,1983,Low
31.9458,-5.2083,Assoul,1983,Low
31.7667,-7.6667,Sidi Azzouz,1983,Low
33.8536,-6.0597,Sidi al Ghandour,1983,Low
30.2942,-9.4544,Lqoliaa,1983,Low
31.5833,-8.4833,Lamzoudia,1983,Low
31.35,-5.3,Ait el Farsi,1983,Low
29.7428,-7.9725,Tata,1983,Low
32.55,-8.7167,Douar Lehgagcha,1983,Low
35.0656,-6.0939,Laouamra,1983,Low
34.7625,-3.7953,Tizi Ouzli,1983,Low
34.7992,-5.8394,Sidi Amer El Hadi,1983,Low
30.7,-8.15,Awlouz,1983,Low
34.2803,-4.5336,Douar Messassa,1983,Medium
31.7917,-7.0926,Ait Bousarane,1983,Low
31.6507,-8.3021,Loudaya,1983,Low
33.983000000000004,-6.417000000000002,Sidi Allal el Bahraoui,1983,Low
32.4333,-7.4333,Laqraqra,1983,Low
32.28,-8.31,Douar Lehouifrat,1983,Low
35.1833,-6.15,Larache,1983,Low
26.5404,-13.8477,Lemsid,1983,Low
31.7,-4.1167,Awfouss,1983,Low
34.5197,-6.3236,Sidi Allal Tazi,1983,Low
31.5456,-8.2967,Ayt 'Attou ou L'Arbi,1983,Low
32.8625,-8.0611,Boula'wane,1983,Low
35.6857,-5.3251,M'diq,1983,Low
34.5406,-4.7294,Douar Mezaoura,1983,Low
34.85,-6.0669,Lalla Mimouna,1983,Low
34.7114,-5.815,Sidi Ahmed Ben Aissa,1983,Low
31.5058,-7.7161,Ait Faska,1983,Low
30.2333,-9.5333,Sidi Bibi,1983,Low
31.6295,-7.9811,Marrakech,1983,Low
34.8167,-5.8167,Douar Lamrabih,1983,Low
32.5667,-6.9833,Ayt Mohamed,1983,Low
31.4667,-7.6167,Tidili Masfiywat,1983,Low
31.3669,-8.1331,Lalla Takerkoust,1983,Low
29.1228,-9.5992,Timoulay Izder,1983,Low
32.0944,-6.6025,Tawnza,1983,Low
32.2156,-8.1733,Ait Hammou,1983,Low
33.5667,-6.8936,Sidi Bettach,1983,Low
35.7333,-5.6333,Malloussa,1983,Low
33.2122,-7.7164,Zawyat Sidi al Mekki,1983,Low
29.7,-9.7269,Tiznit,1983,Low
34.1245,-6.747999999999998,Bouknadel,1983,Low
35.1033,-3.8383,Ait Bouchta,1983,Low
33.2,-7.5,Lambarkiyine,1983,Low
35.1333,-3.0833,Assebbab,1983,Low
32.5167,-7.3833,Sidi Ahmed El Khadir,1983,Low
35.0103,-2.337,Madagh,1983,Low
32.655,-8.4292,Sidi Bennour,1983,Low
32.0247,-8.9153,Lamrasla,1983,Low
31.0336,-9.1392,Timlilt,1983,Low
32.2536,-8.3972,Douar Oulad Amer Leqliaa,1983,Low
35.0639,-5.2025,Taza,1983,Low
31.6043,-8.4688,Douar Hammadi,1983,Low
32.2236,-9.1278,Khat Azakane,1983,Low
32.1167,-9.0833,Sebt Gzoula,1983,Low
29.2987,-9.825,Sidi Mbark,1983,Low
32.23,-7.95,Ben Guerir,1983,Low
30.4083,-8.8269,Tazemmourt,1983,Low
34.5019,-4.1567,Douar El Gouzal,1983,Low
33.83,-4.83,Sefrou,1983,Medium
35.7878,-5.4678,Tleta Taghramt,1983,Low
34.4383,-5.6844,Khenichet-sur Ouerrha,1983,Low
32.68,-4.74,Midalt,1983,Low
31.4361,-4.2328,Arfoud,1983,Low
31.57,-9.01,Sidi Lmokhtar,1983,Low
34.2083,-5.0522,Douar Oulad Bouziane,1983,Medium
32.93,-5.66,Khenifra,1983,Low
29.8222,-5.7208,Mhamid el Rhozlane,1983,Low
33.1228,-7.6219,Khmis Sidi al 'Aydi,1983,Low
35.1169,-3.4917,Mhajar,1983,Low
31.3738,-5.9956,Boumalne,1983,Low
30.0314,-9.5542,Bellaa,1983,Low
32.9,-6.05,Sidi Lamine,1983,Medium
34.9402,-4.3208,Targuist,1983,Low
33.7983,-6.2653,Khmis Sidi Yahia,1983,Low
32.2,-6.4667,Timoulilt,1983,Low
33.7808,-5.7822,Ait Ali Mimoune,1983,Medium
34.9,-5.9167,Arbaoua,1983,Low
31.5319,-4.8061,Milla'ab,1983,Low
34.7167,-6.2667,Sidi Mohamed Lahmar,1983,Low
31.5592,-9.2483,Kechoulah,1983,Low
34.1333,-4.4,Bouhlou,1983,Medium
34.5329,-4.2941,Kef el Rhar,1983,Low
34.7667,-5.5167,Mnasra,1983,Low
29.5283,-9.8044,Bounaamane,1983,Low
30.05,-9.6833,Sidi Ouassay,1983,Low
34.05,-6.8167,Sale,1983,Low
35.1536,-2.9861,Beni Bou Yafroun,1983,Low
33.05,-3.9908,Missour,1983,Low
31.0,-7.15,Tizagzawine,1983,Low
30.4167,-9.0333,Kenafif,1983,Low
35.0708,-2.9392,Selouane,1983,Low
34.6575,-3.5331,Ain Zora,1983,Low
34.25,-6.5833,Kenitra,1983,Low
35.25,-5.8333,Sebt Bni Garfett,1983,Low
33.5594,-7.3817,Sidi Moussa Ben Ali,1983,Low
27.9133,-12.9317,Tarfaya,1983,Low
31.8514,-6.9658,Ait Majdane,1983,Low
35.0837,-3.4696,Ben Taieb,1983,Low
32.7986,-5.3225,Kerrouchen,1983,Low
33.0681,-8.5108,Douar Oulad Hssine,1983,Low
30.8833,-9.05,Timezgadiouine,1983,Low
34.9158,-4.5686,Ketama,1983,Low
29.5782,-10.034,Mirleft,1983,Low
34.4228,-6.089,Douar el Caid el Gueddari,1983,Low
29.5993,-9.877,Arbaa Sahel,1983,Low
34.5019,-3.6428,Mezguitem,1983,Low
33.5667,-5.65,Ait Ikkou,1983,Medium
35.4136,-5.0694,Tizgane,1983,Low
34.8032,-5.3446,Zoumi,1983,Low
34.85,-5.6167,Asjen,1983,Low
35.8428,-5.5586,Ksar Lmajaz,1983,Low
33.8833,-5.55,Meknes,1983,Medium
31.2256,-7.6758,Setti Fatma,1983,Low
31.1,-8.4833,Adassil,1983,Low
32.8397,-6.6947,Ksar Oulad Azzouz,1983,Low
31.55,-9.35,Mejji,1983,Low
31.8,-7.14,Ac-cahrij,1983,Low
35.8419,-5.5586,Ksar Sghir,1983,Low
34.0697,-4.1203,Bab Boudir,1983,Medium
34.2557,-6.6745,Mehdya,1983,Low
32.0697,-7.2142,Douar Oulad Amer,1983,Low
34.2933,-6.1594,Ksebia,1983,Low
33.045,-7.9292,Zawyat Sidi Ben Hamdoun,1983,Low
30.7687,-7.7729,Askawn,1983,Low
34.0278,-4.8833,Sidi Harazem,1983,Medium
32.7342,-7.2033,Sgamna,1983,Low
32.1594,-8.8267,Sidi Ettiji,1983,Low
33.43,-5.21,Azrou,1983,Low
34.2894,-4.9481,L'Oulja,1983,Medium
33.9322,-4.0456,Meghraoua,1983,Medium
35.0,-5.9,Ksar El Kebir,1983,Low
31.7483,-5.5735,Ait Hani,1983,Low
34.7703,-6.3047,Bahharet Oulad Ayyad,1983,Low
29.3833,-10.1667,Sidi Ifni,1983,Low
34.6,-5.0833,Kissane Ltouqi,1983,Low
32.5703,-8.1217,Douar Oulad Boussaken,1983,Low
31.309,-6.028,Knemis Dades,1983,Low
34.0999,-2.6219,Sidi Lahsene,1983,Low
35.6264,-5.3414,Douar El Mellaliyine,1983,Low
35.4667,-6.0333,Asilah,1983,Low
26.7333,-11.6833,Semara,1983,Low
33.27,-7.5872,Barrechid,1983,Low
32.6541,-5.9214,Zawyat ech Cheikh,1983,Low
32.76,-6.4,Boujad,1983,Medium
35.5339,-5.2183,Sidi Kasem,1983,Low
30.1739,-9.4881,Ait Ali,1983,Low
34.4868,-2.6883,Mestigmer,1983,Low
34.5833,-4.7333,Timezgana,1983,Low
30.61,-8.01,Tazarine,1983,Low
34.9833,-3.15,Tiztoutine,1983,Low
32.3833,-6.4167,Sidi Jaber,1983,Low
32.88,-6.9,Kouribga,1983,Low
34.5667,-3.0167,Melqa el Ouidane,1983,Low
33.85,-5.0667,Ait Amar,1983,Medium
34.7667,-5.8333,Douar Ezzerarda,1983,Low
31.4569,-9.3131,Kourimat,1983,Low
33.0023,-7.6198,Settat,1983,Low
29.0565,-9.428,Tarhjicht,1983,Low
31.5617,-8.8944,Douar Oulad Bou Krae El Fouqani,1983,Low
34.7167,-5.1333,Douar Tabouda,1983,Low
35.0339,-5.7706,Tatoufet,1983,Low
32.8938,-6.245,Souk el Had-des Beni-Batao,1983,Medium
29.5333,-8.85,Tamsaout,1983,Low
33.4489,-7.6486,Bouskoura,1983,Low
35.25,-3.65,Oulad Amghar,1983,Low
35.1203,-3.3322,Dar El Kebdani,1983,Low
30.4,-9.21,Oulad Teima,1983,Low
35.0563,-5.0688,Bni Darkoul,1983,Low
34.5428,-4.5075,Bou Adel,1983,Low
35.5667,-5.3667,Tetouan,1983,Low
32.2044,-8.5608,Esbiaat,1983,Low
31.5853,-9.2519,Tafetachte,1983,Low
32.7419,-5.5231,Al Qbab,1983,Low
31.5147,-5.5328,Tineghir,1983,Low
32.35,-8.5333,Zirara,1983,Low
32.1433,-5.3503,Outerbat,1983,Low
28.9833,-10.0667,Guelmim,1983,Low
31.7611,-5.3169,Aghbalou n'Kerdous,1983,Low
35.1483,-3.5478,Taliouine,1983,Low
31.8667,-7.65,Akarma,1983,Low
32.9608,-7.9222,Gtarna,1983,Low
30.3633,-9.4144,Temsia,1983,Low
32.3375,-4.0761,Gourrama,1983,Low
35.2167,-5.9667,Oulad Amrane el Mekki,1983,Low
34.3272,-4.2039,El Arba Des Bir Lenni,1983,Medium
30.7667,-8.3833,Tafingoult,1983,Low
32.3333,-6.3833,Oulad Ayyad,1983,Low
32.6108,-7.625,Oulad Friha,1983,Low
34.4667,-5.3,Ghouazi,1983,Medium
31.513,-9.7687,Essaouira,1983,Low
31.6,-7.85,Ech Chaibat,1983,Low
32.2833,-9.2333,Oulad Amrane,1983,Low
33.4,-3.7167,Al Orjane,1983,Low
30.9903,-8.1772,Talat-n-Ya'qoub,1983,Low
31.6944,-4.9592,Goulmima,1983,Low
32.16,-6.35,Wawizaght,1983,Low
30.645,-5.8386,Tafetchna,1983,Low
33.3456,-3.6939,Outat Oulad Al Haj,1983,Low
32.0275,-3.0397,Bou'nane,1983,Low
33.2833,-5.3833,'Ain Leuh,1983,Low
34.8281,-1.9936,Bni Drar,1983,Medium
32.3412,-6.3725,Oulad Hamdane,1983,Low
33.2833,-7.2,Ahlaf,1983,Low
34.4833,-4.7,Ain Aicha,1983,Medium
30.558000000000003,-8.613999999999999,Oulad Aissa,1983,Low
31.8697,-7.3097,Dzouz,1983,Low
34.4836,-2.0456,Guenfouda,1983,Low
34.0476,-4.4289,Tahla,1983,Medium
31.1169,-5.1737,Alnif,1983,Low
34.9667,-5.5833,Brikcha,1983,Low
32.4408,-8.3708,Tadla,1983,Low
30.5328,-7.9256,Taliwine,1983,Low
32.6215,-8.7022,Zemamra,1983,Low
35.0728,-4.0706,Bni Abdellah,1983,Low
34.6167,-5.7333,Had Kourt,1983,Low
32.6,-6.26,Qasbat Tadla,1983,Medium
34.0142,-5.4619,El Meghassine,1983,Medium
30.8075,-6.1142,Tamezmout,1983,Low
34.8,-5.6,Ouezzane,1983,Low
32.0333,-7.7167,Oulad Imloul,1983,Low
30.4167,-9.5833,Agadir,1983,Low
33.9598,-4.9954,Oulad Tayeb,1983,Medium
29.3885,-9.9607,Tourza,1983,Low
33.1119,-7.4058,Bou Ahmed,1983,Low
32.6128,-8.2256,Had Laaounate,1983,Low
31.8017,-4.9673,Tadighoust,1983,Low
31.9053,-7.2144,'Ali Ben Sliman,1983,Low
34.8119,-4.1581,Et Tnine des Beni Ammart,1983,Low
31.5833,-9.5333,Had Dra,1983,Low
31.6503,-7.8361,Oulad Hassoune,1983,Low
35.1575,-3.0017,Zeghanghane,1983,Low
32.5,-7.2,Al Brouj,1983,Low
31.5333,-8.7667,Chichaoua,1983,Low
35.0192,-3.5684,Tafersit,1983,Low
30.5119,-8.7978,Ait Yazza,1983,Low
31.9319,-4.4244,Errachidia,1983,Low
33.25,-8.3347,Oulad Hammou,1983,Low
35.0675,-4.3206,Bni Boufrah,1983,Low
34.23,-3.36,Guercif,1983,Low
31.2414,-6.1283,Qal'at Mgouna,1983,Low
28.4333,-11.1,Tan-Tan,1983,Low
35.72,-5.894,Gueznaia,1983,Low
33.8389,-4.5458,El Menzel,1983,Medium
31.0958,-9.8208,Tafadna,1983,Low
32.3167,-6.9,Dar Ould Zidouh,1983,Low
34.69,-1.91,Oujda-Angad,1983,Medium
32.0331,-9.1625,El Ghiate,1983,Low
35.1223,-3.6373,Temsamane,1983,Low
31.1755,-8.0782,Ouirgane,1983,Low
34.9833,-3.3833,Driouch,1983,Low
31.9833,-5.7833,Ait Youssef Ou Ali,1983,Low
30.6167,-8.2167,Al Fayd,1983,Low
32.55,-7.5,Dar Chaifat,1983,Low
35.19300000000001,-3.912,Ajdir,1983,Low
32.2,-7.3,Chtiba,1983,Low
30.6281,-5.3556,Taghbalt,1983,Low
32.25,-8.53,Youssoufia,1983,Low
30.9167,-6.9167,Warzat,1983,Low
34.0433,-5.0033,Fes,1983,Medium
35.5167,-5.9333,Oulad Fares,1983,Low
33.15,-5.8333,Aguelmous,1983,Medium
32.1114,-5.5197,Bou Zemou,1983,Low
31.96,-6.98,Foum Jam'a,1983,Low
32.3333,-7.75,Oulad Cherki,1983,Low
34.1889,-5.9697,Dar Bel Hamri,1983,Low
30.25,-9.55,Takad Sahel,1983,Low
33.8808,-6.7858,Oum Azza,1983,Low
34.7667,-6.05,Chouafaa,1983,Low
35.0228,-4.1408,Bni Hadifa,1983,Low
31.2858,-7.9656,Zawiat Moulay Brahim,1983,Low
31.7667,-7.7833,Oulad Cherif,1983,Low
33.3,-6.5333,Ezzhiliga,1983,Low
32.3717,-6.2614,Foum el Anser,1983,Low
30.2612,-5.682,Tamgrout,1983,Low
32.2878,-6.4328,Oulad Embarek,1983,Low
34.5853,-2.5056,El Aioun,1983,Low
32.35,-6.6333,Oulad Zemam,1983,Low
31.9536,-8.2053,Oulad Driss,1983,Low
32.1167,-1.2269,Figuig,1983,Low
34.7381,-5.5442,Bni Quolla,1983,Low
31.3514,-7.9508,Tahannawt,1983,Low
33.6333,-5.5833,Agourai,1983,Medium
34.4058,-4.6939,Oulad Daoud,1983,Medium
34.6667,-5.2667,Teroual,1983,Low
34.95,-5.25,Fifi,1983,Low
32.5,-6.7,Al Fqih Ben Calah,1983,Low
35.85,-5.35,Fnidq,1983,Low
34.9333,-4.7833,Tamorot,1983,Low
33.7894,-7.1597,Bouznika,1983,Low
32.8544,-7.5386,Oulad Chikh,1983,Low
29.9833,-5.5667,Tagounite,1983,Low
32.65,-7.3833,Bni Khloug,1983,Low
35.2472,-3.9322,Al Hoceima,1983,Low
31.875,-7.4217,Oulad Zarrad,1983,Low
33.4167,-6.0167,Oulmes,1983,Low
34.9164,-2.2042,Fezouane,1983,Low
31.45,-7.4,Had Zraqtane,1983,Low
32.2381,-6.1194,Tagalft,1983,Low
35.0108,-4.7262,Bni Rzine,1983,Low
32.7822,-5.6517,Tirhassaline,1983,Low
33.7039,-6.34,Al M'aziz,1983,Low
35.25,-5.1833,Talambote,1983,Low
35.6519,-5.7328,Ez Zinat,1983,Low
30.7,-9.8333,Tamri,1983,Low
35.5153,-5.9306,Gharbia,1983,Low
34.2606,-4.4139,Outa Bouabane,1983,Medium
34.9514,-2.1025,Ahfir,1983,Low
29.176,-9.714,Bou Izakarn,1983,Low
32.2914,-3.466,Bni Tajjit,1983,Low
27.4181,-12.9869,Uad Damran,1983,Low
32.0705,-8.6532,Echemmaia Est,1983,Low
33.8184,-4.4106,Ribat Al Khayr,1983,Medium
34.625,-5.1242,Tafrant,1983,Low
31.1697,-6.8042,Ghassat,1983,Low
34.3819,-4.3761,Bni Frassen,1983,Medium
32.4167,-6.3333,Oulad Yaich,1983,Low
30.6388,-8.4732,Oulad Barhil,1983,Low
32.2167,-5.4333,Tighadouine,1983,Low
31.6281,-6.9444,Tifni,1983,Low
30.0861,-6.8736,Foum Zguid,1983,Low
33.2692,-7.2678,Oulad Ben Sebbah,1983,Low
29.7167,-8.9667,Tafraout,1983,Low
30.6978,-6.4497,Agdz,1983,Low
33.6167,-3.55,Fritissa,1983,Low
31.4903,-4.4014,Aj Jourf,1983,Low
30.6167,-7.75,Tinzart,1983,Low
33.81,-6.06,Al Khmissat,1983,Low
31.0061,-9.4042,El Arba Bouzemmour,1983,Low
33.05,-7.3833,Oulad Chbana,1983,Low
34.55,-4.8,Galaz,1983,Low
31.5336,-9.5536,Ounagha,1983,Low
30.5167,-6.8167,Aghbar,1983,Low
30.7047,-8.8819,Tafraoutane,1983,Low
32.2953,-6.6669,Oulad Bou Rahmoun,1983,Low
35.0675,-4.4242,Bni Gmil,1983,Low
33.05,-2.0,Tendrara,1983,Low
29.7,-9.0667,Tiqqi,1983,Low
31.4175,-8.4117,Gammasa,1983,Low
32.9667,-8.2333,Oulad Fraj,1983,Low
34.55,-4.9333,Ourtzagh,1983,Low
23.6111,-15.8583,El Aargub,1983,Low
34.6245,-4.9112,Ghafsai,1983,Low
32.86,-6.56,Oued Zem,1983,Low
32.2064,-7.2431,El Amim,1983,Low
32.75,-4.4667,Amersid,1983,Low
31.45,-5.55,Ouaklim Oukider,1983,Low
32.5681,-6.0308,El Ksiba,1983,Medium
33.8833,-5.0333,Ain Cheggag,1983,Medium
35.1333,-2.4167,Ras Kebdana,1983,Low
31.2842,-4.2642,Recani,1983,Low
35.15,-2.9667,Iheddadene,1983,Low
31.8325,-6.1056,Zawyat Ahancal,1983,Low
32.7931,-8.6506,Zaouiet Says,1983,Low
34.2,-4.2833,Oued Amlil,1983,Medium
30.2249,-7.796,Agadir Melloul,1983,Low
35.2631,-5.5453,Douar Tazrout,1983,Low
31.3833,-8.3833,Tamazouzt,1983,Low
32.9175,-7.2652,Oulad Rahal,1983,Low
32.7333,-9.0167,Oualidia,1983,Low
31.48,-6.94,Ait Tamlil,1983,Low
31.0961,-9.17,Ichemrarn,1983,Low
33.85,-4.8667,Bhalil,1983,Medium
31.5,-5.035,Tinajdad,1983,Low
34.9382,-2.1455,Aghbal,1983,Low
32.4773,-5.1348,Tounfit,1983,Low
30.9931,-8.1528,Ijoukak,1983,Low
33.2566,-8.5025,El Jadid,1983,Low
33.9342,-4.7381,Aghbalou Aqourar,1983,Medium
21.61,-15.0,Tichla,1983,Low
33.9234,-6.9076,Temara,1983,Low
32.0806,-7.93,Nzalat Laadam,1983,Low
35.1167,-5.2833,Derdara,1983,Low
32.7772,-8.6433,Souq Sebt Says,1983,Low
30.2144,-9.3708,Biougra,1983,Low
31.8667,-6.75,Ouaoula,1983,Low
32.1883,-7.1808,Oulad Messaoud,1983,Low
33.7333,-7.2,Oulad Sbih,1983,Low
34.9333,-5.85,Oued El Makhazine,1983,Low
33.7601,-5.4866,Bou Fekrane,1983,Medium
35.0939,-5.9453,Oulad Ouchchih,1983,Low
32.9,-6.7833,Bou Djeniba,1983,Low
33.5333,-5.1167,Ifrane,1983,Medium
34.7833,-4.9333,Ratba,1983,Low
34.3667,-4.8167,Bouarouss,1983,Medium
32.9833,-7.1333,Souq at Tlata des Loulad,1983,Low
34.0889,-2.0247,'Ayn Bni Mathar,1983,Low
30.7467,-7.9258,Iguidiy,1983,Low
30.5983,-9.0025,Ida Ou Moumene,1983,Low
31.5,-8.1,Tameslouht,1983,Low
30.2167,-8.3833,Wislane,1983,Low
32.05,-7.4,El Kelaa des Srarhna,1983,Low
35.0167,-4.5167,Ouaouzgane,1983,Low
34.9167,-2.4333,Aklim,1983,Low
31.7547,-9.3717,Zaouiat Sidi Hammou Ben Hmida,1983,Low
34.9833,-4.9167,Boureit,1983,Low
34.0419,-5.9272,El Kansera,1983,Low
32.1083,-6.475,Bine Al Widane,1983,Low
31.1533,-9.7333,Ida Ou Azza,1983,Low
31.5617,-8.8944,Amdel,1983,Low
31.8667,-6.95,Tanant,1983,Low
31.8288,-7.5262,Tamallalt,1983,Low
35.325,-5.6422,Souk Khmis Bni Arouss,1983,Low
33.5911,-7.2792,Souq Jamaa Fdalate,1983,Low
33.8111,-6.7922,Ain El Aouda,1983,Low
30.6377,-8.6315,Ida Ou Gailal,1983,Low
32.4817,-5.6427,Aghbala,1983,Low
34.0,-4.7167,Ras Tabouda,1983,Medium
32.4442,-6.955,El Khemis des Beni Chegdal,1983,Low
35.0708,-3.4217,Ouardana,1983,Low
32.34,-8.7728,El Ghourdane,1983,Low
32.632,-8.8456,Oulad Said,1983,Low
31.585,-8.607999999999999,Ain Beida,1983,Low
35.2544,-3.115,Iazizatene,1983,Low
30.7185,-9.2101,Bigoudine,1983,Low
34.4542,-1.8986,Tiouli,1983,Low
31.8189,-5.7718,Tilmi,1983,Low
35.3646,-4.9306,Steha,1983,Low
32.76,-5.7233,Zaouia Ait Ishak,1983,Low
34.3903,-4.5072,Ras El Oued,1983,Medium
34.8333,-2.8667,Hassi Berkane,1983,Low
31.1717,-5.6489,Ikniwn,1983,Low
31.2655,-9.1786,Bouabout,1983,Low
32.5353,-3.4481,Talsint,1983,Low
35.1091,-5.4577,Tanakoub,1983,Low
29.3908,-8.2564,Akka,1983,Low
35.1797,-3.7714,Douar Trougout,1983,Low
33.9831,-4.6397,Bir Tam Tam,1983,Medium
31.6581,-6.42,Tabant,1983,Low
30.2778,-6.8292,Alougoum,1983,Low
31.2282,-7.4237,Ighrem n'Ougdal,1983,Low
33.0167,-7.3333,Oued Naanaa,1983,Low
29.5716,-9.6972,Reggada,1983,Low
35.4542,-5.6125,Bghaghza,1983,Low
32.0989,-7.3861,El Marmouta,1983,Low
32.7775,-7.7725,Oulad Slim,1983,Low
34.0981,-5.4161,Nzalat Bni Amar,1983,Medium
33.4,-3.5833,Tissaf,1983,Low
34.3356,-6.4603,Oulad Salmane,1983,Low
31.2938,-7.176,Talwat,1983,Low
35.0104,-3.0073,Al Aaroui,1983,Low
34.0253,-6.8361,Rabat,1983,Low
34.6211,-6.1336,Souk Tlet El Gharb,1983,Low
26.0928,-10.6089,Tifariti,1983,Low
34.8407,-2.3543,Zegzel,1983,Low
32.3278,-6.5006,Oulad Rahmoun,1983,Low
34.222,-6.511,Haddada,1983,Low
35.1714,-5.2697,Chefchaouene,1983,Low
34.4833,-5.1167,Zaouiat Moulay Bouchta El Khammar,1983,Medium
31.9167,-6.7167,Ait Tagalla,1983,Low
34.6519,-4.2786,Dhar Souk,1983,Low
31.05,-7.2167,Amarzgane,1983,Low
34.9396,-2.7334,Zaio,1983,Low
35.2167,-5.6667,Za'roura,1983,Low
33.5992,-7.62,Casablanca,1983,Low
31.7311,-7.0361,Demnat,1983,Low
35.067,-3.967,Iaboutene,1983,Low
34.4833,-5.5169,Souk et Tnine Jorf el Mellah,1983,Low
29.8502,-9.6575,El Maader El Kabir,1983,Low
31.0833,-9.6756,Tamanar,1983,Low
34.9353,-2.4306,Station des Essais M.V.A.,1983,Low
33.7833,-5.7167,Ras Ijerri,1983,Medium
31.4167,-7.65,Ighil,1983,Low
30.5308,-9.3283,Ameskroud,1983,Low
33.9333,-5.3667,Oued Jdida,1983,Medium
32.531,-1.9631,Bou Arfa,1983,Low
33.75,-7.3,El Mansouria,1983,Low
31.2647,-6.5906,Toundout,1983,Low
29.9,-7.3167,Tissint,1983,Low
31.1386,-9.6092,Douar Tassila Imassouane,1983,Low
33.7333,-5.5833,Ait Yaazem,1983,Medium
32.8403,-6.8025,Hetane,1983,Low
34.7167,-2.5833,Oulad Khallouf,1983,Low
34.3539,-2.6255,Tancherfi,1983,Low
33.9856,-4.8931,Ain Bida,1983,Medium
23.8883,-14.5306,Bir Anzarane,1983,Low
33.6928,-5.3711,El Hajeb,1983,Medium
32.3567,-5.835,Bou Iferda,1983,Low
35.45,-5.0833,Oued Laou,1983,Low
29.9919,-7.5322,Akka Irene,1983,Low
31.2357,-8.7278,Znada,1983,Low
35.5099,-5.2263,Douar Tassift,1983,Low
32.632,-8.8456,Oulad Said,1984,Low
33.45,-7.51,Mediouna,1984,Low
33.366,-4.7330000000000005,Boulemane,1984,Low
34.7625,-3.7953,Tizi Ouzli,1984,Low
32.0333,-7.7167,Oulad Imloul,1984,Low
32.55,-8.7167,Douar Lehgagcha,1984,Low
31.7,-4.1167,Awfouss,1984,Low
32.3278,-6.5006,Oulad Rahmoun,1984,Low
31.9536,-8.2053,Oulad Driss,1984,Low
32.5,-6.7,Al Fqih Ben Calah,1984,Low
29.3908,-8.2564,Akka,1984,Low
30.7687,-7.7729,Askawn,1984,Low
26.5404,-13.8477,Lemsid,1984,Low
31.875,-7.4217,Oulad Zarrad,1984,Low
34.8167,-3.7286,Sidi 'Ali Bou Aqba,1984,Low
33.983000000000004,-6.417000000000002,Sidi Allal el Bahraoui,1984,Low
33.9322,-4.0456,Meghraoua,1984,Low
33.5992,-7.62,Casablanca,1984,Low
35.0339,-5.7706,Tatoufet,1984,Low
32.9175,-7.2652,Oulad Rahal,1984,Low
31.6507,-8.3021,Loudaya,1984,Low
32.2156,-8.1733,Ait Hammou,1984,Low
35.5167,-5.9333,Oulad Fares,1984,Low
34.7667,-6.05,Chouafaa,1984,Low
32.7342,-7.2033,Sgamna,1984,Low
32.2878,-6.4328,Oulad Embarek,1984,Low
30.6167,-8.2167,Al Fayd,1984,Low
30.6167,-7.75,Tinzart,1984,Low
34.1,-4.55,Matmata,1984,Medium
35.0104,-3.0073,Al Aaroui,1984,Medium
34.8167,-5.8167,Douar Lamrabih,1984,Low
35.5667,-5.3667,Tetouan,1984,Low
31.3942,-8.7725,Ait Hadi,1984,Low
32.76,-5.7233,Zaouia Ait Ishak,1984,Low
31.8667,-7.65,Akarma,1984,Low
32.5,-7.2,Al Brouj,1984,Low
35.7333,-5.6333,Malloussa,1984,Low
34.7167,-2.5833,Oulad Khallouf,1984,Low
29.9919,-7.5322,Akka Irene,1984,Low
33.1869,-7.2333,Sidi Abdelkarim,1984,Low
32.0944,-6.6025,Tawnza,1984,Low
35.1333,-3.0833,Assebbab,1984,Medium
33.25,-8.3347,Oulad Hammou,1984,Low
34.0019,-5.3694,Sidi Abdellah Ben Taazizt,1984,Medium
33.9598,-4.9954,Oulad Tayeb,1984,Low
33.2106,-2.5564,Matarka,1984,Low
34.7114,-5.815,Sidi Ahmed Ben Aissa,1984,Low
31.5058,-7.7161,Ait Faska,1984,Low
31.6295,-7.9811,Marrakech,1984,Low
34.9667,-5.5833,Brikcha,1984,Low
34.8407,-2.3543,Zegzel,1984,Low
29.1228,-9.5992,Timoulay Izder,1984,Low
30.5981,-7.6523,Assays,1984,Low
34.7861,-5.7078,Masmouda,1984,Low
35.61,-5.27,Martil,1984,Low
31.8878,-7.4411,Douar Jwalla,1984,Low
32.7775,-7.7725,Oulad Slim,1984,Low
33.7333,-7.2,Oulad Sbih,1984,Low
32.4667,-5.7667,Tizi Nisly,1984,Low
35.0103,-2.337,Madagh,1984,Low
30.4,-9.21,Oulad Teima,1984,Low
31.6043,-8.4688,Douar Hammadi,1984,Low
34.3356,-6.4603,Oulad Salmane,1984,Low
31.35,-5.3,Ait el Farsi,1984,Low
29.7,-9.0667,Tiqqi,1984,Low
32.9667,-8.2333,Oulad Fraj,1984,Low
31.25,-7.9792,Asni,1984,Low
34.5787,-5.962999999999999,Mechraa Bel Ksiri,1984,Low
30.2942,-9.4544,Lqoliaa,1984,Low
33.8536,-6.0597,Sidi al Ghandour,1984,Low
31.5333,-8.7667,Chichaoua,1984,Low
34.7233,-2.7918,Mechra-Hommadi,1984,Low
35.1714,-5.2697,Chefchaouene,1984,Medium
35.0639,-5.2025,Taza,1984,Medium
31.9458,-5.2083,Assoul,1984,Low
34.4542,-1.8986,Tiouli,1984,Low
33.8897,-6.1503,Sidi 'Allal al Mcader,1984,Low
32.4167,-6.3333,Oulad Yaich,1984,Low
32.2719,-7.525,Mayate,1984,Low
35.0939,-5.9453,Oulad Ouchchih,1984,Low
35.6857,-5.3251,M'diq,1984,Low
32.8625,-8.0611,Boula'wane,1984,Low
21.61,-15.0,Tichla,1984,Low
23.7141,-15.9368,Ad Dakhla,1984,Low
32.6108,-7.625,Oulad Friha,1984,Low
32.5783,-7.8108,Sidi Abdallah,1984,Low
30.9131,-9.2439,Assais,1984,Low
33.2833,-5.3833,'Ain Leuh,1984,Low
32.1883,-7.1808,Oulad Messaoud,1984,Low
32.5167,-7.3833,Sidi Ahmed El Khadir,1984,Low
32.3412,-6.3725,Oulad Hamdane,1984,Low
34.9167,-2.4333,Aklim,1984,Low
31.6503,-7.8361,Oulad Hassoune,1984,Low
30.4083,-8.8269,Tazemmourt,1984,Low
31.8,-7.14,Ac-cahrij,1984,Low
34.3903,-4.5072,Ras El Oued,1984,Medium
34.5922,-4.5492,Bourdoud,1984,Low
32.2833,-9.2333,Safi,1984,Low
35.45,-5.0833,Oued Laou,1984,Medium
33.9333,-5.3667,Oued Jdida,1984,Low
30.9908,-9.7994,Timzguida Ouftas,1984,Low
30.4833,-9.6333,Aourir,1984,Low
34.0559,-5.5183,Moulay Driss Zerhoun,1984,Low
31.05,-7.2167,Amarzgane,1984,Low
31.7311,-7.0361,Demnat,1984,Low
34.9333,-5.85,Oued El Makhazine,1984,Low
33.7833,-5.7167,Ras Ijerri,1984,Low
34.9396,-2.7334,Zaio,1984,Low
33.9234,-6.9076,Temara,1984,Low
32.4403,-4.7114,Zawyat Sidi Hamza,1984,Low
30.5736,-7.2028,Taznakht,1984,Low
33.9375,-6.2544,Mqam at Tolba,1984,Low
31.48,-6.94,Ait Tamlil,1984,Low
32.7128,-5.8042,Ait Ouaoumana,1984,Low
34.2,-4.2833,Oued Amlil,1984,Medium
30.6333,-8.05,Anazzou,1984,Low
33.7897,-6.4986,Moulay Driss Aghbal,1984,Low
35.6633,-5.4886,Saddina,1984,Low
35.1223,-3.6373,Temsamane,1984,Medium
30.2778,-6.8292,Alougoum,1984,Low
34.8,-5.6,Ouezzane,1984,Low
33.1978,-8.5883,Moulay Abdallah,1984,Low
32.3167,-6.9,Dar Ould Zidouh,1984,Low
32.6,-6.26,Qasbat Tadla,1984,Low
34.4,-4.7167,Moulay Abdelkader,1984,Medium
33.5667,-6.2658,Tiddas,1984,Low
32.86,-6.56,Oued Zem,1984,Low
33.7333,-5.5833,Ait Yaazem,1984,Low
33.2565,-6.1319,Moulay Bou 'azza,1984,Low
32.6215,-8.7022,Zemamra,1984,Low
30.0297,-9.2478,Ait Ouakrim,1984,Low
33.5333,-6.6,Ar Rommani,1984,Low
33.4,-3.5833,Tissaf,1984,Low
31.6597,-7.4092,Tazert,1984,Low
34.0253,-6.8361,Rabat,1984,Low
33.0167,-7.3333,Oued Naanaa,1984,Low
34.8786,-6.2933,Moulay Bousselham,1984,Low
34.9667,-4.55,Sahel,1984,Low
34.45,-4.2972,Douar Brarba,1984,Medium
29.5875,-9.4063,Tiyghmi,1984,Low
34.5581,-6.0078,Safsaf,1984,Low
31.65,-9.6833,Moulay Bouzarqtoune,1984,Low
31.1169,-5.1737,Alnif,1984,Low
35.1333,-2.4167,Ras Kebdana,1984,Low
34.1014,-4.2939,Douar Bouchfaa,1984,Medium
31.9167,-6.7167,Ait Tagalla,1984,Low
31.21,-8.1834,Amrharas,1984,Low
32.2269,-4.6475,Mzizal,1984,Low
31.45,-5.55,Ouaklim Oukider,1984,Low
31.5,-5.035,Tinajdad,1984,Low
31.2842,-4.2642,Recani,1984,Low
35.1667,-2.9333,Nador,1984,Low
34.0889,-2.0247,'Ayn Bni Mathar,1984,Low
32.0806,-7.93,Nzalat Laadam,1984,Low
34.7344,-4.0947,Boured,1984,Low
35.1403,-4.1347,Rouadi,1984,Medium
32.9572,-7.0731,Nkheila,1984,Low
30.5308,-9.3283,Ameskroud,1984,Low
31.4458,-9.4383,Ait Said,1984,Low
31.21,-8.25,Amizmiz,1984,Low
33.8184,-4.4106,Ribat Al Khayr,1984,Low
34.6519,-4.2786,Dhar Souk,1984,Low
34.0981,-5.4161,Nzalat Bni Amar,1984,Medium
29.5716,-9.6972,Reggada,1984,Low
30.8722,-5.8639,Nkob,1984,Low
33.6667,-4.6333,Tazouta,1984,Low
29.9,-7.3167,Tissint,1984,Low
33.1667,-5.5667,Mrirt,1984,Low
30.8075,-7.7883,Tazoult,1984,Low
34.8422,-5.6842,Mzefroune,1984,Low
35.1167,-5.2833,Derdara,1984,Medium
33.8201,-7.0334,Sabbah,1984,Low
31.5617,-8.8944,Amdel,1984,Low
34.9833,-4.9167,Boureit,1984,Low
32.8467,-7.1319,Mrizig,1984,Low
34.0,-4.7167,Ras Tabouda,1984,Medium
35.0708,-3.4217,Ouardana,1984,Medium
33.8969,-5.3611,Sabaa Aiyoun,1984,Low
31.7025,-5.8119,Msemrir,1984,Low
35.5317,-5.2885,Douar Azla,1984,Low
35.0167,-4.5167,Ouaouzgane,1984,Medium
35.2385,-4.7943,Amtar,1984,Medium
33.5581,-7.4858,Tit Mellil,1984,Low
31.8667,-6.75,Ouaoula,1984,Low
34.4833,-5.1167,Zaouiat Moulay Bouchta El Khammar,1984,Medium
34.7833,-4.9333,Ratba,1984,Low
33.4467,-7.3283,Mwaline al Oued,1984,Low
35.1575,-3.0017,Zeghanghane,1984,Medium
31.5644,-7.6628,Ait Ourir,1984,Low
31.6258,-8.1028,Sa'ada,1984,Low
32.75,-4.4667,Amersid,1984,Low
32.7333,-9.0167,Oualidia,1984,Low
31.3442,-8.7053,Saidat,1984,Low
30.5035,-8.6064,Arazane,1984,Low
31.9053,-7.2144,'Ali Ben Sliman,1984,Low
35.4667,-6.0333,Asilah,1984,Low
34.1889,-5.9697,Dar Bel Hamri,1984,Low
35.6264,-5.3414,Douar El Mellaliyine,1984,Low
35.0708,-2.9392,Selouane,1984,Low
31.4903,-4.4014,Aj Jourf,1984,Low
33.05,-7.3833,Oulad Chbana,1984,Low
33.81,-6.06,Al Khmissat,1984,Low
34.5019,-3.6428,Mezguitem,1984,Low
32.2953,-6.6669,Oulad Bou Rahmoun,1984,Low
32.2,-6.4667,Timoulilt,1984,Low
31.5336,-9.5536,Ounagha,1984,Low
33.05,-2.0,Tendrara,1984,Low
35.1169,-3.4917,Mhajar,1984,Medium
31.3738,-5.9956,Boumalne,1984,Low
33.2692,-7.2678,Oulad Ben Sebbah,1984,Low
33.83,-4.83,Sefrou,1984,Low
29.8222,-5.7208,Mhamid el Rhozlane,1984,Low
34.55,-4.9333,Ourtzagh,1984,Low
33.5667,-5.65,Ait Ikkou,1984,Low
31.4361,-4.2328,Arfoud,1984,Low
33.7039,-6.34,Al M'aziz,1984,Low
26.7333,-11.6833,Semara,1984,Low
32.68,-4.74,Midalt,1984,Low
31.7667,-7.7833,Oulad Cherif,1984,Low
30.61,-8.01,Tazarine,1984,Low
32.35,-6.6333,Oulad Zemam,1984,Low
33.045,-7.9292,Zawyat Sidi Ben Hamdoun,1984,Low
35.2472,-3.9322,Al Hoceima,1984,Medium
34.4058,-4.6939,Oulad Daoud,1984,Medium
31.2256,-7.6758,Setti Fatma,1984,Low
31.55,-9.35,Mejji,1984,Low
33.7894,-7.1597,Bouznika,1984,Low
34.85,-5.6167,Asjen,1984,Low
32.8544,-7.5386,Oulad Chikh,1984,Low
35.19300000000001,-3.912,Ajdir,1984,Medium
34.6667,-5.2667,Teroual,1984,Medium
31.7483,-5.5735,Ait Hani,1984,Low
33.8833,-5.55,Meknes,1984,Low
33.0023,-7.6198,Settat,1984,Low
34.7667,-5.8333,Douar Ezzerarda,1984,Low
33.4167,-6.0167,Oulmes,1984,Low
34.5667,-3.0167,Melqa el Ouidane,1984,Medium
32.2,-7.3,Chtiba,1984,Low
32.3333,-7.75,Oulad Cherki,1984,Low
35.4136,-5.0694,Tizgane,1984,Medium
34.4868,-2.6883,Mestigmer,1984,Low
33.8808,-6.7858,Oum Azza,1984,Low
34.5019,-4.1567,Douar El Gouzal,1984,Low
32.7822,-5.6517,Tirhassaline,1984,Low
32.1167,-9.0833,Sebt Gzoula,1984,Low
35.25,-3.65,Oulad Amghar,1984,Medium
32.7419,-5.5231,Al Qbab,1984,Low
31.5147,-5.5328,Tineghir,1984,Low
34.4167,-6.4333,Mograne,1984,Low
32.1433,-5.3503,Outerbat,1984,Low
30.558000000000003,-8.613999999999999,Oulad Aissa,1984,Low
33.6833,-7.3833,Mohammedia,1984,Low
35.383,-5.8333,Arbaa Ayacha,1984,Low
30.5119,-8.7978,Ait Yazza,1984,Low
30.3342,-9.4972,Ait Melloul,1984,Low
30.3316,-5.8376,Zagora,1984,Low
34.6167,-3.4167,Saka,1984,Medium
34.2167,-5.35,Douar Echbanat,1984,Medium
34.69,-1.91,Oujda-Angad,1984,Low
34.91,-5.3536,Mokrisset,1984,Medium
35.085,-2.2392,Saidia,1984,Low
31.2414,-6.1283,Qal'at Mgouna,1984,Low
31.5792,-7.3131,Abadou,1984,Low
31.1755,-8.0782,Ouirgane,1984,Low
32.0242,-7.2811,Douar Drissiine,1984,Low
32.5228,-8.9986,Moul El Bergui,1984,Low
29.5283,-9.8044,Bounaamane,1984,Low
31.5339,-8.2672,Zemrane,1984,Low
29.5993,-9.877,Arbaa Sahel,1984,Low
34.7667,-5.5167,Mnasra,1984,Low
34.2606,-4.4139,Outa Bouabane,1984,Medium
34.95,-3.5333,Midar,1984,Low
30.6388,-8.4732,Oulad Barhil,1984,Low
34.9,-5.9167,Arbaoua,1984,Low
31.5319,-4.8061,Milla'ab,1984,Low
31.9833,-5.7833,Ait Youssef Ou Ali,1984,Low
29.5782,-10.034,Mirleft,1984,Low
32.3333,-6.3833,Oulad Ayyad,1984,Low
35.25,-5.8333,Sebt Bni Garfett,1984,Low
32.55,-7.5,Dar Chaifat,1984,Low
34.2557,-6.6745,Mehdya,1984,Low
32.2833,-9.2333,Oulad Amrane,1984,Low
31.8514,-6.9658,Ait Majdane,1984,Low
34.4228,-6.089,Douar el Caid el Gueddari,1984,Low
35.1203,-3.3322,Dar El Kebdani,1984,Medium
30.3633,-9.4144,Temsia,1984,Low
31.0,-7.15,Tizagzawine,1984,Low
33.3456,-3.6939,Outat Oulad Al Haj,1984,Low
35.2167,-5.9667,Oulad Amrane el Mekki,1984,Low
33.05,-3.9908,Missour,1984,Low
34.05,-6.8167,Sale,1984,Low
33.4489,-7.6486,Bouskoura,1984,Low
33.4,-3.7167,Al Orjane,1984,Low
33.95,-4.45,Douar 'Ayn Dfali,1984,Low
35.7167,-5.8,Laaouama,1984,Low
31.1097,-8.1336,Imigdal,1984,Low
29.7167,-8.9667,Tafraout,1984,Low
31.6806,-7.7281,Jaidte Lbatma,1984,Low
35.0675,-4.4242,Bni Gmil,1984,Medium
32.3516,-8.8744,Jamaat Shaim,1984,Low
31.4175,-8.4117,Gammasa,1984,Low
34.5897,-4.4514,Beni Oulid,1984,Low
31.9505,-3.5973,Boudenib,1984,Low
34.3058,-6.3058,Sidi Yahia El Gharb,1984,Low
33.2517,-5.0259,Timahdit,1984,Low
23.6111,-15.8583,El Aargub,1984,Low
34.4936,-5.7108,Douar Oulad Naoual,1984,Low
33.3611,-7.6114,Zawyat an Nwacer,1984,Low
34.5949,-2.372,Ain Lehjer,1984,Low
30.7047,-8.8819,Tafraoutane,1984,Low
34.4314,-4.9642,Jbabra,1984,Medium
32.8167,-8.5,Sidi Smai'il,1984,Low
34.55,-4.8,Galaz,1984,Low
32.1154,-8.7587,Jdour,1984,Low
35.2001,-3.6429,Boudinar,1984,Medium
34.4333,-5.4,Beni Oual Sehira,1984,Medium
33.8136,-4.5169,Douar Oulad Mkoudou,1984,Low
33.5881,-6.4264,Jemaat Moul Blad,1984,Low
34.26,-5.93,Sidi Slimane,1984,Low
35.0228,-4.1408,Bni Hadifa,1984,Medium
33.2925,-7.4406,Jaqma,1984,Low
32.6833,-5.5833,Sidi Yahia Sawad,1984,Low
34.6245,-4.9112,Ghafsai,1984,Low
32.0705,-8.6532,Echemmaia Est,1984,Low
31.2167,-9.0833,Taouloukoult,1984,Low
31.6667,-7.0667,Sidi Yakoub,1984,Low
30.7667,-8.3833,Tafingoult,1984,Low
30.3658,-9.5381,Inezgane,1984,Low
31.1697,-6.8042,Ghassat,1984,Low
32.2167,-5.4333,Tighadouine,1984,Low
33.6681,-7.2514,Beni Yakhlef,1984,Low
34.625,-5.1242,Tafrant,1984,Medium
34.1667,-4.5,Ain Legdah,1984,Medium
30.8434,-9.8186,Iskourane,1984,Low
32.2083,-6.5403,Afourar,1984,Low
34.3819,-4.3761,Bni Frassen,1984,Medium
34.9514,-2.1025,Ahfir,1984,Low
33.8261,-6.9039,Sidi Yahya Zaer,1984,Low
34.5358,-4.64,Taounate,1984,Low
32.8808,-5.0542,Itzer,1984,Low
30.7,-9.8333,Tamri,1984,Low
35.1833,-4.0,Izmorene,1984,Medium
31.5339,-7.4872,Touama,1984,Low
32.4167,-7.1,Douar Ouled Ayad,1984,Low
30.4969,-8.8211,Sidi Yahia,1984,Low
35.5153,-5.9306,Gharbia,1984,Low
27.4181,-12.9869,Uad Damran,1984,Low
31.5145,-8.7555,Jafra,1984,Low
35.1069,-3.0656,Beni Sidal Louta,1984,Medium
34.5,-4.55,Ain Mediouna,1984,Low
33.0939,-7.0519,Jemaat Oulad Mhamed,1984,Low
33.15,-5.8333,Aguelmous,1984,Low
33.6167,-3.55,Fritissa,1984,Low
34.21,-5.7,Sidi Qacem,1984,Low
30.9167,-6.9167,Warzat,1984,Low
32.475,-6.1497,Kasba Tanora,1984,Low
29.9833,-5.5667,Tagounite,1984,Low
28.0167,-9.3333,Zag,1984,Low
31.5592,-9.2483,Kechoulah,1984,Low
34.5329,-4.2941,Kef el Rhar,1984,Low
32.65,-7.3833,Bni Khloug,1984,Low
30.05,-9.6833,Sidi Ouassay,1984,Low
35.1536,-2.9861,Beni Bou Yafroun,1984,Low
35.85,-5.35,Fnidq,1984,Low
34.1333,-4.4,Bouhlou,1984,Medium
33.0681,-8.5108,Douar Oulad Hssine,1984,Low
33.6333,-5.5833,Agourai,1984,Low
30.4167,-9.0333,Kenafif,1984,Low
34.6575,-3.5331,Ain Zora,1984,Low
34.25,-6.5833,Kenitra,1984,Low
33.5594,-7.3817,Sidi Moussa Ben Ali,1984,Low
31.3514,-7.9508,Tahannawt,1984,Low
32.7986,-5.3225,Kerrouchen,1984,Low
32.1167,-1.2269,Figuig,1984,Low
34.9158,-4.5686,Ketama,1984,Low
34.7167,-6.2667,Sidi Mohamed Lahmar,1984,Low
27.9133,-12.9317,Tarfaya,1984,Low
30.8833,-9.05,Timezgadiouine,1984,Low
35.2569,-2.9342,Beni Enzar,1984,Low
34.4667,-5.3,Ghouazi,1984,Medium
34.5853,-2.5056,El Aioun,1984,Low
31.2655,-9.1786,Bouabout,1984,Low
34.31,-2.16,Jerada,1984,Low
30.0861,-6.8736,Foum Zguid,1984,Low
34.41,-2.89,Taourirt,1984,Low
32.3394,-6.3608,Beni Mellal,1984,Low
32.2381,-6.1194,Tagalft,1984,Low
31.2858,-7.9656,Zawiat Moulay Brahim,1984,Low
34.6833,-5.45,Sidi Redouane,1984,Medium
32.0308,-8.7894,Jnane Bouih,1984,Low
31.6667,-7.4833,Sidi Rahhal,1984,Low
35.4333,-5.4,Zinat,1984,Medium
30.6978,-6.4497,Agdz,1984,Low
35.65,-5.6833,Jouamaa,1984,Low
32.1114,-5.5197,Bou Zemou,1984,Low
34.8614,-2.021,Beni Khaled,1984,Low
34.2833,-4.3167,Douar Oulad Mbarek,1984,Medium
34.3631,-5.2123,Karia Ba Mohamed,1984,Medium
31.96,-6.98,Foum Jam'a,1984,Low
32.25,-8.53,Youssoufia,1984,Low
35.37,-5.97,Tnine Sidi Lyamani,1984,Low
33.4725,-7.9617,Sidi Rahal,1984,Low
30.9069,-3.9958,Taouz,1984,Low
32.3011,-7.2053,Douar Oulad Jaber,1984,Low
34.7667,-5.95,Kariat Ben Aouda,1984,Low
30.6281,-5.3556,Taghbalt,1984,Low
29.6919,-7.9856,Adis,1984,Low
33.9333,-5.2167,Ain Taoujdat,1984,Low
31.6,-7.85,Ech Chaibat,1984,Low
35.1448,-3.8505,Imzouren,1984,Medium
32.1667,-7.6333,Douar Sgarta,1984,Low
32.1083,-6.475,Bine Al Widane,1984,Low
31.8667,-6.95,Tanant,1984,Low
32.9833,-7.1333,Souq at Tlata des Loulad,1984,Low
35.0728,-4.0706,Bni Abdellah,1984,Medium
30.4167,-9.5833,Agadir,1984,Low
33.8833,-5.0333,Ain Cheggag,1984,Low
30.5983,-9.0025,Ida Ou Moumene,1984,Low
33.5333,-5.1167,Ifrane,1984,Low
34.3667,-4.8167,Bouarouss,1984,Medium
31.1386,-9.6092,Douar Tassila Imassouane,1984,Low
30.7185,-9.2101,Bigoudine,1984,Low
31.4167,-7.65,Ighil,1984,Low
34.6167,-5.7333,Had Kourt,1984,Low
34.6211,-6.1336,Souk Tlet El Gharb,1984,Low
32.4408,-8.3708,Tadla,1984,Low
26.0928,-10.6089,Tifariti,1984,Low
34.9833,-3.3833,Driouch,1984,Medium
31.2282,-7.4237,Ighrem n'Ougdal,1984,Low
31.5833,-9.5333,Had Dra,1984,Low
28.4333,-11.1,Tan-Tan,1984,Low
35.0675,-4.3206,Bni Boufrah,1984,Medium
33.85,-4.8667,Bhalil,1984,Low
35.325,-5.6422,Souk Khmis Bni Arouss,1984,Low
33.8111,-6.7922,Ain El Aouda,1984,Low
30.7467,-7.9258,Iguidiy,1984,Low
29.3885,-9.9607,Tourza,1984,Low
30.2249,-7.796,Agadir Melloul,1984,Low
30.6377,-8.6315,Ida Ou Gailal,1984,Low
32.6128,-8.2256,Had Laaounate,1984,Low
35.1797,-3.7714,Douar Trougout,1984,Medium
32.8403,-6.8025,Hetane,1984,Low
35.067,-3.967,Iaboutene,1984,Medium
34.8333,-2.8667,Hassi Berkane,1984,Low
31.6581,-6.42,Tabant,1984,Low
23.8883,-14.5306,Bir Anzarane,1984,Low
35.3646,-4.9306,Steha,1984,Medium
34.222,-6.511,Haddada,1984,Low
34.9353,-2.4306,Station des Essais M.V.A.,1984,Low
35.2544,-3.115,Iazizatene,1984,Medium
35.1091,-5.4577,Tanakoub,1984,Medium
32.4773,-5.1348,Tounfit,1984,Low
33.9856,-4.8931,Ain Bida,1984,Low
35.2631,-5.5453,Douar Tazrout,1984,Low
33.9831,-4.6397,Bir Tam Tam,1984,Low
30.2144,-9.3708,Biougra,1984,Low
32.7772,-8.6433,Souq Sebt Says,1984,Low
31.0961,-9.17,Ichemrarn,1984,Low
31.585,-8.607999999999999,Ain Beida,1984,Low
31.45,-7.4,Had Zraqtane,1984,Low
35.2167,-5.6667,Za'roura,1984,Low
31.8017,-4.9673,Tadighoust,1984,Low
31.7547,-9.3717,Zaouiat Sidi Hammou Ben Hmida,1984,Low
31.8325,-6.1056,Zawyat Ahancal,1984,Low
31.1533,-9.7333,Ida Ou Azza,1984,Low
33.5911,-7.2792,Souq Jamaa Fdalate,1984,Low
35.0837,-3.4696,Ben Taieb,1984,Medium
35.15,-2.9667,Iheddadene,1984,Low
31.0958,-9.8208,Tafadna,1984,Low
34.9167,-2.3167,Berkane,1984,Low
31.5853,-9.2519,Tafetachte,1984,Low
35.7767,-5.8039,Tangier,1984,Low
31.177,-8.8504,Imi-n-Tanout,1984,Low
34.0263,-5.7949,Ain Jemaa,1984,Low
35.0717,-5.5703,Douar Souk L`qolla,1984,Low
32.0275,-3.0397,Bou'nane,1984,Low
32.155,-5.6347,Imilchil,1984,Low
32.4833,-7.9167,Skhour Rehamna,1984,Low
32.3375,-4.0761,Gourrama,1984,Low
33.2833,-7.2,Ahlaf,1984,Low
32.35,-8.5333,Zirara,1984,Low
33.6122,-7.1211,Benslimane,1984,Low
32.3037,-3.9861,Toulal,1984,Low
33.85,-7.03,Skhirate,1984,Low
30.7436,-8.7633,Imoulas,1984,Low
34.15,-4.8314,Ain Kansara,1984,Medium
31.6944,-4.9592,Goulmima,1984,Low
30.645,-5.8386,Tafetchna,1984,Low
30.674,-9.5624,Imouzzer des Ida ou Tanane,1984,Low
35.0764,-4.2167,Douar Snada,1984,Medium
30.5047,-5.8563,Beni Zouli,1984,Low
31.6706,-8.3456,Sidi Zouine,1984,Low
33.7215,-5.0083,Imouzzer Kandar,1984,Low
34.8281,-1.9936,Bni Drar,1984,Low
31.0672,-6.5397,Skoura,1984,Low
35.72,-5.894,Gueznaia,1984,Low
32.9608,-7.9222,Gtarna,1984,Low
29.5333,-8.85,Tamsaout,1984,Low
35.5099,-5.2263,Douar Tassift,1984,Low
30.9931,-8.1528,Ijoukak,1984,Low
35.0192,-3.5684,Tafersit,1984,Medium
34.4833,-5.5169,Souk et Tnine Jorf el Mellah,1984,Low
31.2647,-6.5906,Toundout,1984,Low
34.23,-3.36,Guercif,1984,Low
34.3539,-2.6255,Tancherfi,1984,Low
31.1717,-5.6489,Ikniwn,1984,Low
35.4542,-5.6125,Bghaghza,1984,Low
32.8938,-6.245,Souk el Had-des Beni-Batao,1984,Low
35.1333,-3.0333,Iksane,1984,Medium
32.0333,-6.2,Tilougguit,1984,Low
34.4836,-2.0456,Guenfouda,1984,Low
33.6372,-7.4483,Ain Harrouda,1984,Low
34.4833,-4.7,Ain Aicha,1984,Medium
31.8697,-7.3097,Dzouz,1984,Low
30.1675,-9.2322,Imi Mokorn,1984,Low
32.0833,-7.05,Bezou,1984,Low
35.1167,-5.95,Souakene,1984,Low
34.3833,-5.0167,Bouchabel,1984,Medium
31.3094,-6.4992,Imi n'Oulaoun,1984,Low
28.9833,-10.0667,Guelmim,1984,Low
31.2136,-9.7058,Smimou,1984,Low
35.0563,-5.0688,Bni Darkoul,1984,Medium
34.7167,-5.1333,Douar Tabouda,1984,Medium
31.2156,-9.5461,Imi n-Tlit,1984,Low
34.0476,-4.4289,Tahla,1984,Medium
32.3717,-6.2614,Foum el Anser,1984,Low
31.8189,-5.7718,Tilmi,1984,Low
34.5406,-4.7294,Douar Mezaoura,1984,Low
32.1594,-8.8267,Sidi Ettiji,1984,Low
31.0336,-9.1392,Timlilt,1984,Low
33.43,-5.21,Azrou,1984,Low
31.9319,-4.4244,Errachidia,1984,Low
34.2894,-4.9481,L'Oulja,1984,Medium
33.5667,-6.8936,Sidi Bettach,1984,Low
32.2536,-8.3972,Douar Oulad Amer Leqliaa,1984,Low
31.8288,-7.5262,Tamallalt,1984,Low
29.7,-9.7269,Tiznit,1984,Low
31.9117,-7.335,La'tamna,1984,Low
30.6142,-5.5223,Ait Athmane,1984,Low
31.8944,-8.9842,Laamarna,1984,Low
31.3669,-8.1331,Lalla Takerkoust,1984,Low
32.5667,-6.9833,Ayt Mohamed,1984,Low
32.4442,-6.955,El Khemis des Beni Chegdal,1984,Low
34.6039,-4.7889,Sidi el Mokhfi,1984,Low
32.3528,-7.3245,Sidi El Hattab,1984,Low
30.1702,-7.9234,Azrar,1984,Low
33.2,-7.5,Lambarkiyine,1984,Low
32.05,-7.4,El Kelaa des Srarhna,1984,Low
32.34,-8.7728,El Ghourdane,1984,Low
34.2933,-6.1594,Ksebia,1984,Low
35.8428,-5.5586,Ksar Lmajaz,1984,Low
35.1483,-3.5478,Taliouine,1984,Medium
32.9,-6.7833,Bou Djeniba,1984,Low
32.655,-8.4292,Sidi Bennour,1984,Low
31.1,-8.4833,Adassil,1984,Low
31.0833,-9.6756,Tamanar,1984,Low
34.3272,-4.2039,El Arba Des Bir Lenni,1984,Medium
32.8397,-6.6947,Ksar Oulad Azzouz,1984,Low
30.57,-8.4878,Lahfayr,1984,Low
33.6833,-4.8167,Laanoussar,1984,Low
32.2044,-8.5608,Esbiaat,1984,Low
33.2122,-7.7164,Zawyat Sidi al Mekki,1984,Low
35.8419,-5.5586,Ksar Sghir,1984,Low
30.2167,-8.3833,Wislane,1984,Low
34.5428,-4.5075,Bou Adel,1984,Low
31.7611,-5.3169,Aghbalou n'Kerdous,1984,Low
34.0697,-4.1203,Bab Boudir,1984,Medium
32.0697,-7.2142,Douar Oulad Amer,1984,Low
34.0278,-4.8833,Sidi Harazem,1984,Medium
34.1245,-6.747999999999998,Bouknadel,1984,Low
34.9833,-3.15,Tiztoutine,1984,Medium
32.0247,-8.9153,Lamrasla,1984,Low
33.8389,-4.5458,El Menzel,1984,Low
31.4667,-7.6167,Tidili Masfiywat,1984,Low
32.9139,-7.7019,Lahouarta,1984,Low
33.9342,-4.7381,Aghbalou Aqourar,1984,Low
32.8739,-8.8589,Douar Olad. Salem,1984,Low
34.8819,-4.2803,Zerkat,1984,Low
35.7333,-5.8833,Laghdir,1984,Low
33.75,-7.3,El Mansouria,1984,Low
32.5353,-3.4481,Talsint,1984,Low
31.35,-7.5,Azgour,1984,Low
33.1914,-7.6701,Laghzawna,1984,Low
32.3567,-5.835,Bou Iferda,1984,Low
31.2357,-8.7278,Znada,1984,Low
31.2938,-7.176,Talwat,1984,Low
33.4167,-7.5333,Ad Darwa,1984,Low
31.6345,-7.644,Ait Ben Daoudi,1984,Low
29.8502,-9.6575,El Maader El Kabir,1984,Low
34.5628,-5.3621,Sidi Bousber,1984,Medium
32.531,-1.9631,Bou Arfa,1984,Low
30.4711,-8.8778,Taroudannt,1984,Low
34.1667,-5.5333,Zaggota,1984,Low
27.15,-13.2,Laayoune,1984,Low
33.2833,-8.3333,Azemmour,1984,Low
31.7453,-8.7069,Sidi Chiker,1984,Low
32.2567,-6.7839,Douar Oulad Aj-jabri,1984,Low
32.7931,-8.6506,Zaouiet Says,1984,Low
34.7381,-5.5442,Bni Quolla,1984,Low
30.8075,-6.1142,Tamezmout,1984,Low
34.85,-6.0669,Lalla Mimouna,1984,Low
34.0142,-5.4619,El Meghassine,1984,Medium
30.9925,-7.8167,Tizoual,1984,Low
30.5328,-7.9256,Taliwine,1984,Low
35.1114,-5.7822,Boujediane,1984,Low
32.0989,-7.3861,El Marmouta,1984,Low
32.4333,-6.1833,Tarhzirt,1984,Low
30.07,-9.155,Ait Ban,1984,Low
32.0331,-9.1625,El Ghiate,1984,Low
35.1033,-3.8383,Ait Bouchta,1984,Medium
30.2333,-9.5333,Sidi Bibi,1984,Low
33.05,-7.1833,Sidi Dahbi,1984,Low
32.6314,-8.4147,Laatatra,1984,Low
33.1119,-7.4058,Bou Ahmed,1984,Low
34.9382,-2.1455,Aghbal,1984,Low
33.0333,-7.05,Lakhzazra,1984,Low
31.96,-6.56,Aziylal,1984,Low
32.5681,-6.0308,El Ksiba,1984,Low
33.85,-5.0667,Ait Amar,1984,Low
31.9033,-7.9422,Sidi Bou Othmane,1984,Low
32.16,-6.35,Wawizaght,1984,Low
31.7917,-7.0926,Ait Bousarane,1984,Low
33.1228,-7.6219,Khmis Sidi al 'Aydi,1984,Low
30.2612,-5.682,Tamgrout,1984,Low
32.9,-6.05,Sidi Lamine,1984,Low
30.25,-9.55,Takad Sahel,1984,Low
30.0314,-9.5542,Bellaa,1984,Low
33.7983,-6.2653,Khmis Sidi Yahia,1984,Low
33.2566,-8.5025,El Jadid,1984,Low
34.7992,-5.8394,Sidi Amer El Hadi,1984,Low
34.9402,-4.3208,Targuist,1984,Low
34.6,-5.0833,Kissane Ltouqi,1984,Medium
32.76,-6.4,Boujad,1984,Low
30.7,-8.15,Awlouz,1984,Low
32.5703,-8.1217,Douar Oulad Boussaken,1984,Low
30.1739,-9.4881,Ait Ali,1984,Low
34.0999,-2.6219,Sidi Lahsene,1984,Low
31.3833,-8.3833,Tamazouzt,1984,Low
31.309,-6.028,Knemis Dades,1984,Low
30.5167,-6.8167,Aghbar,1984,Low
34.8032,-5.3446,Zoumi,1984,Medium
35.0656,-6.0939,Laouamra,1984,Low
32.93,-5.66,Khenifra,1984,Low
35.0108,-4.7262,Bni Rzine,1984,Medium
33.6928,-5.3711,El Hajeb,1984,Low
34.9333,-4.7833,Tamorot,1984,Low
35.1833,-6.15,Larache,1984,Low
32.2236,-9.1278,Khat Azakane,1984,Low
34.5197,-6.3236,Sidi Allal Tazi,1984,Low
34.95,-5.25,Fifi,1984,Medium
29.2987,-9.825,Sidi Mbark,1984,Low
32.23,-7.95,Ben Guerir,1984,Low
35.7878,-5.4678,Tleta Taghramt,1984,Low
33.9,-6.33,Tiflet,1984,Low
32.4333,-7.4333,Laqraqra,1984,Low
32.28,-8.31,Douar Lehouifrat,1984,Low
33.7601,-5.4866,Bou Fekrane,1984,Low
34.2083,-5.0522,Douar Oulad Bouziane,1984,Medium
34.9164,-2.2042,Fezouane,1984,Low
31.57,-9.01,Sidi Lmokhtar,1984,Low
33.7808,-5.7822,Ait Ali Mimoune,1984,Low
32.2064,-7.2431,El Amim,1984,Low
34.4383,-5.6844,Khenichet-sur Ouerrha,1984,Low
34.0433,-5.0033,Fes,1984,Medium
31.6281,-6.9444,Tifni,1984,Low
33.3,-6.5333,Ezzhiliga,1984,Low
32.3833,-6.4167,Sidi Jaber,1984,Low
34.5833,-4.7333,Timezgana,1984,Low
35.6519,-5.7328,Ez Zinat,1984,Low
29.3833,-10.1667,Sidi Ifni,1984,Low
29.0565,-9.428,Tarhjicht,1984,Low
32.88,-6.9,Kouribga,1984,Low
32.2933,-8.6889,Lamsabih,1984,Low
31.5,-8.1,Tameslouht,1984,Low
35.0,-5.9,Ksar El Kebir,1984,Low
32.4817,-5.6427,Aghbala,1984,Low
31.513,-9.7687,Essaouira,1984,Low
34.2803,-4.5336,Douar Messassa,1984,Medium
31.0061,-9.4042,El Arba Bouzemmour,1984,Low
30.9903,-8.1772,Talat-n-Ya'qoub,1984,Low
32.2914,-3.466,Bni Tajjit,1984,Low
29.176,-9.714,Bou Izakarn,1984,Low
31.5833,-8.4833,Lamzoudia,1984,Low
29.7428,-7.9725,Tata,1984,Low
34.0419,-5.9272,El Kansera,1984,Low
33.27,-7.5872,Barrechid,1984,Low
32.6541,-5.9214,Zawyat ech Cheikh,1984,Low
34.7703,-6.3047,Bahharet Oulad Ayyad,1984,Low
35.5339,-5.2183,Sidi Kasem,1984,Low
31.4569,-9.3131,Kourimat,1984,Low
35.25,-5.1833,Talambote,1984,Medium
31.5617,-8.8944,Douar Oulad Bou Krae El Fouqani,1984,Low
34.8119,-4.1581,Et Tnine des Beni Ammart,1984,Low
31.5456,-8.2967,Ayt 'Attou ou L'Arbi,1984,Low
31.7667,-7.6667,Sidi Azzouz,1984,Low
32.531,-1.9631,Bou Arfa,1985,Low
31.8697,-7.3097,Dzouz,1985,Medium
32.3167,-6.9,Dar Ould Zidouh,1985,Low
32.9175,-7.2652,Oulad Rahal,1985,Medium
31.5833,-9.5333,Had Dra,1985,Medium
34.69,-1.91,Oujda-Angad,1985,Low
34.4836,-2.0456,Guenfouda,1985,Low
35.1797,-3.7714,Douar Trougout,1985,Low
34.222,-6.511,Haddada,1985,Low
32.9,-6.7833,Bou Djeniba,1985,Low
30.558000000000003,-8.613999999999999,Oulad Aissa,1985,Medium
34.8333,-2.8667,Hassi Berkane,1985,Low
30.2778,-6.8292,Alougoum,1985,High
33.7601,-5.4866,Bou Fekrane,1985,Low
32.05,-7.4,El Kelaa des Srarhna,1985,Medium
32.6128,-8.2256,Had Laaounate,1985,Medium
35.0675,-4.3206,Bni Boufrah,1985,Low
32.1883,-7.1808,Oulad Messaoud,1985,Medium
34.8,-5.6,Ouezzane,1985,Low
31.1755,-8.0782,Ouirgane,1985,Medium
34.9833,-3.3833,Driouch,1985,Low
31.2655,-9.1786,Bouabout,1985,Medium
33.9831,-4.6397,Bir Tam Tam,1985,Low
32.4442,-6.955,El Khemis des Beni Chegdal,1985,Low
32.34,-8.7728,El Ghourdane,1985,Medium
31.45,-7.4,Had Zraqtane,1985,Low
35.0728,-4.0706,Bni Abdellah,1985,Low
35.0939,-5.9453,Oulad Ouchchih,1985,Low
34.9167,-2.4333,Aklim,1985,Low
31.1169,-5.1737,Alnif,1985,Medium
35.72,-5.894,Gueznaia,1985,Low
34.0419,-5.9272,El Kansera,1985,Low
33.4,-3.5833,Tissaf,1985,Low
33.0167,-7.3333,Oued Naanaa,1985,Low
34.6167,-5.7333,Had Kourt,1985,Low
33.2566,-8.5025,El Jadid,1985,Medium
32.7931,-8.6506,Zaouiet Says,1985,Medium
34.23,-3.36,Guercif,1985,Low
34.8407,-2.3543,Zegzel,1985,Low
32.76,-5.7233,Zaouia Ait Ishak,1985,Low
29.3885,-9.9607,Tourza,1985,Medium
32.5681,-6.0308,El Ksiba,1985,Low
35.1203,-3.3322,Dar El Kebdani,1985,Low
32.86,-6.56,Oued Zem,1985,Low
29.8502,-9.6575,El Maader El Kabir,1985,Medium
34.4542,-1.8986,Tiouli,1985,Low
32.5,-6.7,Al Fqih Ben Calah,1985,Low
32.7419,-5.5231,Al Qbab,1985,Low
32.9667,-8.2333,Oulad Fraj,1985,Medium
30.0861,-6.8736,Foum Zguid,1985,High
35.0228,-4.1408,Bni Hadifa,1985,Low
35.6519,-5.7328,Ez Zinat,1985,Low
31.7667,-7.7833,Oulad Cherif,1985,Medium
33.05,-7.3833,Oulad Chbana,1985,Low
32.2914,-3.466,Bni Tajjit,1985,Low
32.6108,-7.625,Oulad Friha,1985,Medium
33.6167,-3.55,Fritissa,1985,Low
34.8119,-4.1581,Et Tnine des Beni Ammart,1985,Low
33.81,-6.06,Al Khmissat,1985,Low
32.1114,-5.5197,Bou Zemou,1985,Low
34.1889,-5.9697,Dar Bel Hamri,1985,Low
23.6111,-15.8583,El Aargub,1985,Low
32.2953,-6.6669,Oulad Bou Rahmoun,1985,Low
34.55,-4.8,Galaz,1985,Low
30.6167,-8.2167,Al Fayd,1985,Medium
35.0675,-4.4242,Bni Gmil,1985,Low
31.513,-9.7687,Essaouira,1985,Medium
31.2858,-7.9656,Zawiat Moulay Brahim,1985,Low
31.4175,-8.4117,Gammasa,1985,Medium
31.96,-6.98,Foum Jam'a,1985,Low
33.2692,-7.2678,Oulad Ben Sebbah,1985,Low
32.3333,-7.75,Oulad Cherki,1985,Medium
31.0061,-9.4042,El Arba Bouzemmour,1985,Medium
34.7381,-5.5442,Bni Quolla,1985,Low
34.95,-5.25,Fifi,1985,Low
32.2064,-7.2431,El Amim,1985,Medium
31.9536,-8.2053,Oulad Driss,1985,Medium
33.7894,-7.1597,Bouznika,1985,Low
34.4058,-4.6939,Oulad Daoud,1985,Low
32.2,-7.3,Chtiba,1985,Medium
34.9164,-2.2042,Fezouane,1985,Low
32.1167,-1.2269,Figuig,1985,Low
34.5853,-2.5056,El Aioun,1985,Low
34.0433,-5.0033,Fes,1985,Low
35.85,-5.35,Fnidq,1985,Low
32.2878,-6.4328,Oulad Embarek,1985,Low
32.8544,-7.5386,Oulad Chikh,1985,Medium
34.7667,-6.05,Chouafaa,1985,Low
30.9167,-6.9167,Warzat,1985,Low
35.2472,-3.9322,Al Hoceima,1985,Low
32.65,-7.3833,Bni Khloug,1985,Medium
35.5167,-5.9333,Oulad Fares,1985,Low
33.3,-6.5333,Ezzhiliga,1985,Low
32.3717,-6.2614,Foum el Anser,1985,Low
35.0108,-4.7262,Bni Rzine,1985,Low
32.16,-6.35,Wawizaght,1985,Low
29.176,-9.714,Bou Izakarn,1985,Medium
32.3412,-6.3725,Oulad Hamdane,1985,Low
32.0333,-7.7167,Oulad Imloul,1985,Medium
33.4,-3.7167,Al Orjane,1985,Low
34.9667,-5.5833,Brikcha,1985,Low
35.2167,-5.9667,Oulad Amrane el Mekki,1985,Low
31.6944,-4.9592,Goulmima,1985,Low
32.3375,-4.0761,Gourrama,1985,Medium
35.1714,-5.2697,Chefchaouene,1985,Low
35.0104,-3.0073,Al Aaroui,1985,Low
33.1119,-7.4058,Bou Ahmed,1985,Low
33.4489,-7.6486,Bouskoura,1985,Low
32.0989,-7.3861,El Marmouta,1985,Medium
35.25,-3.65,Oulad Amghar,1985,Low
27.4181,-12.9869,Uad Damran,1985,Medium
32.3567,-5.835,Bou Iferda,1985,Low
33.75,-7.3,El Mansouria,1985,Low
32.9608,-7.9222,Gtarna,1985,Medium
35.0563,-5.0688,Bni Darkoul,1985,Low
35.1575,-3.0017,Zeghanghane,1985,Low
28.9833,-10.0667,Guelmim,1985,High
32.0275,-3.0397,Bou'nane,1985,Low
30.2167,-8.3833,Wislane,1985,Medium
31.6,-7.85,Ech Chaibat,1985,Medium
32.2833,-9.2333,Oulad Amrane,1985,Medium
34.4667,-5.3,Ghouazi,1985,Low
34.0142,-5.4619,El Meghassine,1985,Low
29.7,-9.0667,Tiqqi,1985,Medium
32.55,-7.5,Dar Chaifat,1985,Medium
34.6245,-4.9112,Ghafsai,1985,Low
34.3819,-4.3761,Bni Frassen,1985,Low
34.3272,-4.2039,El Arba Des Bir Lenni,1985,Low
33.7039,-6.34,Al M'aziz,1985,Low
34.5428,-4.5075,Bou Adel,1985,Low
32.7822,-5.6517,Tirhassaline,1985,Low
32.2044,-8.5608,Esbiaat,1985,Medium
35.5153,-5.9306,Gharbia,1985,Low
34.7167,-2.5833,Oulad Khallouf,1985,Low
31.9319,-4.4244,Errachidia,1985,Low
31.5333,-8.7667,Chichaoua,1985,Medium
32.0331,-9.1625,El Ghiate,1985,Medium
32.25,-8.53,Youssoufia,1985,Medium
32.5,-7.2,Al Brouj,1985,Medium
30.6388,-8.4732,Oulad Barhil,1985,Medium
33.8389,-4.5458,El Menzel,1985,Low
32.3333,-6.3833,Oulad Ayyad,1985,Low
32.0705,-8.6532,Echemmaia Est,1985,Medium
31.1697,-6.8042,Ghassat,1985,Low
31.6503,-7.8361,Oulad Hassoune,1985,Medium
33.25,-8.3347,Oulad Hammou,1985,Medium
34.8281,-1.9936,Bni Drar,1985,Low
26.5404,-13.8477,Lemsid,1985,Medium
32.8403,-6.8025,Hetane,1985,Low
34.6,-5.0833,Kissane Ltouqi,1985,Low
32.5703,-8.1217,Douar Oulad Boussaken,1985,Medium
31.309,-6.028,Knemis Dades,1985,Low
33.27,-7.5872,Barrechid,1985,Low
35.4667,-6.0333,Asilah,1985,Low
35.6264,-5.3414,Douar El Mellaliyine,1985,Low
34.4868,-2.6883,Mestigmer,1985,Low
32.6541,-5.9214,Zawyat ech Cheikh,1985,Low
34.9833,-3.15,Tiztoutine,1985,Low
34.5667,-3.0167,Melqa el Ouidane,1985,Low
32.88,-6.9,Kouribga,1985,Low
31.5617,-8.8944,Douar Oulad Bou Krae El Fouqani,1985,Medium
31.4569,-9.3131,Kourimat,1985,Medium
34.7703,-6.3047,Bahharet Oulad Ayyad,1985,Low
33.8833,-5.55,Meknes,1985,Low
35.4136,-5.0694,Tizgane,1985,Low
33.045,-7.9292,Zawyat Sidi Ben Hamdoun,1985,Low
32.0697,-7.2142,Douar Oulad Amer,1985,Medium
34.2933,-6.1594,Ksebia,1985,Low
34.7667,-5.8333,Douar Ezzerarda,1985,Low
35.8419,-5.5586,Ksar Sghir,1985,Low
34.2557,-6.6745,Mehdya,1985,Low
30.7687,-7.7729,Askawn,1985,Medium
30.0314,-9.5542,Bellaa,1985,High
32.76,-6.4,Boujad,1985,Low
32.8397,-6.6947,Ksar Oulad Azzouz,1985,Low
34.0697,-4.1203,Bab Boudir,1985,Low
35.8428,-5.5586,Ksar Lmajaz,1985,Low
31.3738,-5.9956,Boumalne,1985,Medium
34.85,-5.6167,Asjen,1985,Low
35.0,-5.9,Ksar El Kebir,1985,Low
31.55,-9.35,Mejji,1985,Medium
34.5019,-3.6428,Mezguitem,1985,Low
33.7983,-6.2653,Khmis Sidi Yahia,1985,Low
33.1228,-7.6219,Khmis Sidi al 'Aydi,1985,Low
29.5782,-10.034,Mirleft,1985,High
29.5283,-9.8044,Bounaamane,1985,Medium
34.4228,-6.089,Douar el Caid el Gueddari,1985,Low
32.7986,-5.3225,Kerrouchen,1985,Low
35.0837,-3.4696,Ben Taieb,1985,Low
31.0,-7.15,Tizagzawine,1985,Low
31.5319,-4.8061,Milla'ab,1985,Low
34.25,-6.5833,Kenitra,1985,Low
33.05,-3.9908,Missour,1985,Low
35.1536,-2.9861,Beni Bou Yafroun,1985,Low
34.5329,-4.2941,Kef el Rhar,1985,Low
34.7667,-5.5167,Mnasra,1985,Low
31.5592,-9.2483,Kechoulah,1985,Medium
32.3011,-7.2053,Douar Oulad Jaber,1985,Medium
30.4167,-9.0333,Kenafif,1985,Medium
33.43,-5.21,Azrou,1985,Low
34.9158,-4.5686,Ketama,1985,Low
34.9,-5.9167,Arbaoua,1985,Low
35.1169,-3.4917,Mhajar,1985,Low
29.8222,-5.7208,Mhamid el Rhozlane,1985,Medium
32.93,-5.66,Khenifra,1985,Low
34.4383,-5.6844,Khenichet-sur Ouerrha,1985,Low
31.4361,-4.2328,Arfoud,1985,Low
32.23,-7.95,Ben Guerir,1985,Medium
33.0681,-8.5108,Douar Oulad Hssine,1985,Medium
34.5019,-4.1567,Douar El Gouzal,1985,Low
34.1333,-4.4,Bouhlou,1985,Low
31.7547,-9.3717,Zaouiat Sidi Hammou Ben Hmida,1985,Medium
35.7878,-5.4678,Tleta Taghramt,1985,Low
32.2236,-9.1278,Khat Azakane,1985,Medium
34.95,-3.5333,Midar,1985,Low
34.2083,-5.0522,Douar Oulad Bouziane,1985,Low
32.68,-4.74,Midalt,1985,Low
33.9322,-4.0456,Meghraoua,1985,Low
31.6043,-8.4688,Douar Hammadi,1985,Medium
34.2894,-4.9481,L'Oulja,1985,Low
33.2122,-7.7164,Zawyat Sidi al Mekki,1985,Low
34.1245,-6.747999999999998,Bouknadel,1985,Low
33.2,-7.5,Lambarkiyine,1985,Low
35.0103,-2.337,Madagh,1985,Low
35.1333,-3.0833,Assebbab,1985,Low
34.8167,-5.8167,Douar Lamrabih,1985,Low
32.55,-8.7167,Douar Lehgagcha,1985,Medium
35.7333,-5.6333,Malloussa,1985,Low
32.5667,-6.9833,Ayt Mohamed,1985,Low
31.3669,-8.1331,Lalla Takerkoust,1985,Medium
34.85,-6.0669,Lalla Mimouna,1985,Low
34.5406,-4.7294,Douar Mezaoura,1985,Low
34.1667,-5.5333,Zaggota,1985,Low
34.4833,-5.1167,Zaouiat Moulay Bouchta El Khammar,1985,Low
31.6295,-7.9811,Marrakech,1985,Medium
33.0333,-7.05,Lakhzazra,1985,Low
35.6857,-5.3251,M'diq,1985,Low
32.2933,-8.6889,Lamsabih,1985,Medium
32.28,-8.31,Douar Lehouifrat,1985,Medium
35.1833,-6.15,Larache,1985,Low
34.7625,-3.7953,Tizi Ouzli,1985,Low
30.7,-8.15,Awlouz,1985,Medium
32.8625,-8.0611,Boula'wane,1985,Medium
31.6507,-8.3021,Loudaya,1985,Medium
32.0247,-8.9153,Lamrasla,1985,Medium
32.4333,-7.4333,Laqraqra,1985,Medium
30.2942,-9.4544,Lqoliaa,1985,Medium
31.5833,-8.4833,Lamzoudia,1985,Medium
34.2803,-4.5336,Douar Messassa,1985,Low
31.9458,-5.2083,Assoul,1985,Low
29.7,-9.7269,Tiznit,1985,Medium
31.5456,-8.2967,Ayt 'Attou ou L'Arbi,1985,Medium
35.0656,-6.0939,Laouamra,1985,Low
32.475,-6.1497,Kasba Tanora,1985,Low
33.2833,-8.3333,Azemmour,1985,Medium
32.9139,-7.7019,Lahouarta,1985,Medium
35.7167,-5.8,Laaouama,1985,Low
35.1114,-5.7822,Boujediane,1985,Low
30.1702,-7.9234,Azrar,1985,High
33.6928,-5.3711,El Hajeb,1985,Low
34.7233,-2.7918,Mechra-Hommadi,1985,Low
30.3316,-5.8376,Zagora,1985,Medium
32.6314,-8.4147,Laatatra,1985,Medium
33.6833,-4.8167,Laanoussar,1985,Low
31.25,-7.9792,Asni,1985,Low
33.366,-4.7330000000000005,Boulemane,1985,Low
31.8944,-8.9842,Laamarna,1985,Medium
31.9117,-7.335,La'tamna,1985,Medium
32.2536,-8.3972,Douar Oulad Amer Leqliaa,1985,Medium
33.45,-7.51,Mediouna,1985,Low
34.5787,-5.962999999999999,Mechraa Bel Ksiri,1985,Low
35.61,-5.27,Martil,1985,Low
30.9131,-9.2439,Assais,1985,Medium
27.15,-13.2,Laayoune,1985,Medium
34.7861,-5.7078,Masmouda,1985,Low
30.5981,-7.6523,Assays,1985,Medium
30.57,-8.4878,Lahfayr,1985,Medium
32.8739,-8.8589,Douar Olad. Salem,1985,Medium
33.1914,-7.6701,Laghzawna,1985,Low
33.2106,-2.5564,Matarka,1985,Low
32.2719,-7.525,Mayate,1985,Medium
31.8878,-7.4411,Douar Jwalla,1985,Medium
35.7333,-5.8833,Laghdir,1985,Low
32.4667,-5.7667,Tizi Nisly,1985,Low
30.9925,-7.8167,Tizoual,1985,Medium
34.1,-4.55,Matmata,1985,Low
32.2567,-6.7839,Douar Oulad Aj-jabri,1985,Low
31.96,-6.56,Aziylal,1985,Low
31.35,-7.5,Azgour,1985,Low
29.5993,-9.877,Arbaa Sahel,1985,Medium
34.2167,-5.35,Douar Echbanat,1985,Low
35.2569,-2.9342,Beni Enzar,1985,Low
35.1333,-3.0333,Iksane,1985,Low
31.21,-8.25,Amizmiz,1985,Medium
34.6519,-4.2786,Dhar Souk,1985,Low
34.7167,-5.1333,Douar Tabouda,1985,Low
35.4542,-5.6125,Bghaghza,1985,Low
34.0981,-5.4161,Nzalat Bni Amar,1985,Low
30.8722,-5.8639,Nkob,1985,Medium
31.1717,-5.6489,Ikniwn,1985,Medium
31.2647,-6.5906,Toundout,1985,Low
30.9931,-8.1528,Ijoukak,1985,Medium
35.1167,-5.2833,Derdara,1985,Low
31.45,-5.55,Ouaklim Oukider,1985,Medium
30.5308,-9.3283,Ameskroud,1985,Medium
35.15,-2.9667,Iheddadene,1985,Low
32.0806,-7.93,Nzalat Laadam,1985,Medium
32.7333,-9.0167,Oualidia,1985,Medium
30.1675,-9.2322,Imi Mokorn,1985,Medium
32.0833,-7.05,Bezou,1985,Medium
32.3037,-3.9861,Toulal,1985,Low
32.155,-5.6347,Imilchil,1985,Low
34.8422,-5.6842,Mzefroune,1985,Low
31.7,-4.1167,Awfouss,1985,Low
31.1097,-8.1336,Imigdal,1985,Medium
35.0717,-5.5703,Douar Souk L`qolla,1985,Low
31.3094,-6.4992,Imi n'Oulaoun,1985,Low
32.2269,-4.6475,Mzizal,1985,Low
34.9167,-2.3167,Berkane,1985,Low
31.177,-8.8504,Imi-n-Tanout,1985,Medium
35.1667,-2.9333,Nador,1985,Low
32.9572,-7.0731,Nkheila,1985,Medium
31.2156,-9.5461,Imi n-Tlit,1985,Medium
34.7344,-4.0947,Boured,1985,Low
31.21,-8.1834,Amrharas,1985,Medium
30.7436,-8.7633,Imoulas,1985,Medium
33.85,-4.8667,Bhalil,1985,Low
34.3667,-4.8167,Bouarouss,1985,Low
31.5617,-8.8944,Amdel,1985,Medium
29.9,-7.3167,Tissint,1985,Medium
34.2,-4.2833,Oued Amlil,1985,Low
31.0961,-9.17,Ichemrarn,1985,Medium
35.2544,-3.115,Iazizatene,1985,Low
34.9333,-5.85,Oued El Makhazine,1985,Low
30.2144,-9.3708,Biougra,1985,Medium
34.9396,-2.7334,Zaio,1985,Low
31.05,-7.2167,Amarzgane,1985,Low
35.067,-3.967,Iaboutene,1985,Low
35.2631,-5.5453,Douar Tazrout,1985,Low
33.9333,-5.3667,Oued Jdida,1985,Low
31.7311,-7.0361,Demnat,1985,Medium
23.8883,-14.5306,Bir Anzarane,1985,Low
32.4773,-5.1348,Tounfit,1985,Low
30.7467,-7.9258,Iguidiy,1985,Medium
31.1533,-9.7333,Ida Ou Azza,1985,Medium
34.9833,-4.9167,Boureit,1985,Low
31.2282,-7.4237,Ighrem n'Ougdal,1985,Low
35.5099,-5.2263,Douar Tassift,1985,Low
32.75,-4.4667,Amersid,1985,Low
30.7185,-9.2101,Bigoudine,1985,Medium
31.1386,-9.6092,Douar Tassila Imassouane,1985,Medium
31.4167,-7.65,Ighil,1985,Low
31.8325,-6.1056,Zawyat Ahancal,1985,Low
33.5333,-5.1167,Ifrane,1985,Low
35.2167,-5.6667,Za'roura,1985,Low
30.5983,-9.0025,Ida Ou Moumene,1985,Medium
35.0167,-4.5167,Ouaouzgane,1985,Low
35.0708,-3.4217,Ouardana,1985,Low
32.1083,-6.475,Bine Al Widane,1985,Low
30.6377,-8.6315,Ida Ou Gailal,1985,Medium
31.8667,-6.75,Ouaoula,1985,Low
35.45,-5.0833,Oued Laou,1985,Low
33.6122,-7.1211,Benslimane,1985,Low
33.4467,-7.3283,Mwaline al Oued,1985,Low
30.5035,-8.6064,Arazane,1985,Medium
32.3278,-6.5006,Oulad Rahmoun,1985,Low
33.5881,-6.4264,Jemaat Moul Blad,1985,Low
34.4,-4.7167,Moulay Abdelkader,1985,Low
33.8136,-4.5169,Douar Oulad Mkoudou,1985,Low
32.1154,-8.7587,Jdour,1985,Medium
32.0242,-7.2811,Douar Drissiine,1985,Medium
33.2565,-6.1319,Moulay Bou 'azza,1985,Low
34.8786,-6.2933,Moulay Bousselham,1985,Low
33.2925,-7.4406,Jaqma,1985,Low
34.45,-4.2972,Douar Brarba,1985,Low
31.65,-9.6833,Moulay Bouzarqtoune,1985,Medium
31.5339,-7.4872,Touama,1985,Medium
34.4936,-5.7108,Douar Oulad Naoual,1985,Low
34.4333,-5.4,Beni Oual Sehira,1985,Low
33.3611,-7.6114,Zawyat an Nwacer,1985,Low
33.0939,-7.0519,Jemaat Oulad Mhamed,1985,Low
34.31,-2.16,Jerada,1985,Low
34.4167,-6.4333,Mograne,1985,Low
34.7667,-5.95,Kariat Ben Aouda,1985,Low
35.383,-5.8333,Arbaa Ayacha,1985,Low
34.3631,-5.2123,Karia Ba Mohamed,1985,Low
35.37,-5.97,Tnine Sidi Lyamani,1985,Low
33.6833,-7.3833,Mohammedia,1985,Low
32.3394,-6.3608,Beni Mellal,1985,Low
34.8614,-2.021,Beni Khaled,1985,Low
35.2001,-3.6429,Boudinar,1985,Low
34.91,-5.3536,Mokrisset,1985,Low
32.5228,-8.9986,Moul El Bergui,1985,Medium
34.2833,-4.3167,Douar Oulad Mbarek,1985,Low
32.0308,-8.7894,Jnane Bouih,1985,Medium
33.1978,-8.5883,Moulay Abdallah,1985,Medium
35.65,-5.6833,Jouamaa,1985,Low
35.0764,-4.2167,Douar Snada,1985,Low
34.5897,-4.4514,Beni Oulid,1985,Low
33.7897,-6.4986,Moulay Driss Aghbal,1985,Low
30.8434,-9.8186,Iskourane,1985,Medium
30.3658,-9.5381,Inezgane,1985,High
32.8467,-7.1319,Mrizig,1985,Medium
30.5047,-5.8563,Beni Zouli,1985,Medium
35.1448,-3.8505,Imzouren,1985,Low
35.2385,-4.7943,Amtar,1985,Low
30.6333,-8.05,Anazzou,1985,Medium
35.5317,-5.2885,Douar Azla,1985,Low
33.7215,-5.0083,Imouzzer Kandar,1985,Low
31.7025,-5.8119,Msemrir,1985,Low
33.5581,-7.4858,Tit Mellil,1985,Low
34.3833,-5.0167,Bouchabel,1985,Low
30.674,-9.5624,Imouzzer des Ida ou Tanane,1985,Medium
33.95,-4.45,Douar 'Ayn Dfali,1985,Low
32.4403,-4.7114,Zawyat Sidi Hamza,1985,Low
32.3516,-8.8744,Jamaat Shaim,1985,Medium
33.1667,-5.5667,Mrirt,1985,Low
32.1667,-7.6333,Douar Sgarta,1985,Medium
31.6806,-7.7281,Jaidte Lbatma,1985,Medium
28.0167,-9.3333,Zag,1985,Medium
34.5922,-4.5492,Bourdoud,1985,Low
32.4167,-7.1,Douar Ouled Ayad,1985,Medium
31.5145,-8.7555,Jafra,1985,Medium
34.0559,-5.5183,Moulay Driss Zerhoun,1985,Low
33.6681,-7.2514,Beni Yakhlef,1985,Low
30.4833,-9.6333,Aourir,1985,High
29.5875,-9.4063,Tiyghmi,1985,Medium
35.1069,-3.0656,Beni Sidal Louta,1985,Low
32.8808,-5.0542,Itzer,1985,Low
33.9375,-6.2544,Mqam at Tolba,1985,Low
34.1014,-4.2939,Douar Bouchfaa,1985,Low
31.9505,-3.5973,Boudenib,1985,Medium
35.1833,-4.0,Izmorene,1985,Low
34.4314,-4.9642,Jbabra,1985,Low
33.5333,-6.6,Ar Rommani,1985,Low
33.5992,-7.62,Casablanca,1985,Medium
33.0023,-7.6198,Settat,1985,Low
33.9856,-4.8931,Ain Bida,1985,Low
33.4167,-6.0167,Oulmes,1985,Low
31.8288,-7.5262,Tamallalt,1985,Medium
31.1,-8.4833,Adassil,1985,Medium
34.9353,-2.4306,Station des Essais M.V.A.,1985,Low
31.2938,-7.176,Talwat,1985,Low
32.4333,-6.1833,Tarhzirt,1985,Low
34.3903,-4.5072,Ras El Oued,1985,Low
30.05,-9.6833,Sidi Ouassay,1985,High
33.5594,-7.3817,Sidi Moussa Ben Ali,1985,Low
31.2256,-7.6758,Setti Fatma,1985,Low
34.6575,-3.5331,Ain Zora,1985,Low
30.4711,-8.8778,Taroudannt,1985,Medium
30.6167,-7.75,Tinzart,1985,Medium
31.7483,-5.5735,Ait Hani,1985,Low
34.21,-5.7,Sidi Qacem,1985,Low
33.9333,-5.2167,Ain Taoujdat,1985,Low
29.0565,-9.428,Tarhjicht,1985,High
35.0708,-2.9392,Selouane,1985,Low
34.6833,-5.45,Sidi Redouane,1985,Low
31.3833,-8.3833,Tamazouzt,1985,Medium
32.4817,-5.6427,Aghbala,1985,Low
29.6919,-7.9856,Adis,1985,Medium
31.4903,-4.4014,Aj Jourf,1985,Low
33.5911,-7.2792,Souq Jamaa Fdalate,1985,Low
31.4667,-7.6167,Tidili Masfiywat,1985,Low
31.6667,-7.4833,Sidi Rahhal,1985,Medium
34.5581,-6.0078,Safsaf,1985,Low
33.8808,-6.7858,Oum Azza,1985,Low
34.9402,-4.3208,Targuist,1985,Low
32.7772,-8.6433,Souq Sebt Says,1985,Medium
31.0833,-9.6756,Tamanar,1985,Medium
33.4725,-7.9617,Sidi Rahal,1985,Low
30.8833,-9.05,Timezgadiouine,1985,Medium
26.7333,-11.6833,Semara,1985,Low
31.8189,-5.7718,Tilmi,1985,Low
33.4167,-7.5333,Ad Darwa,1985,Low
35.3646,-4.9306,Steha,1985,Low
30.1739,-9.4881,Ait Ali,1985,Medium
31.875,-7.4217,Oulad Zarrad,1985,Medium
32.0944,-6.6025,Tawnza,1985,Low
35.6633,-5.4886,Saddina,1985,Low
31.585,-8.607999999999999,Ain Beida,1985,Medium
32.4408,-8.3708,Tadla,1985,Medium
34.0999,-2.6219,Sidi Lahsene,1985,Low
32.9,-6.05,Sidi Lamine,1985,Low
32.2156,-8.1733,Ait Hammou,1985,Medium
30.5328,-7.9256,Taliwine,1985,Medium
35.1333,-2.4167,Ras Kebdana,1985,Low
35.5339,-5.2183,Sidi Kasem,1985,Low
33.8201,-7.0334,Sabbah,1985,Low
35.0639,-5.2025,Taza,1985,Low
32.3833,-6.4167,Sidi Jaber,1985,Low
33.8897,-6.1503,Sidi 'Allal al Mcader,1985,Low
23.7141,-15.9368,Ad Dakhla,1985,Low
27.9133,-12.9317,Tarfaya,1985,Medium
31.8017,-4.9673,Tadighoust,1985,Low
31.57,-9.01,Sidi Lmokhtar,1985,Medium
34.7167,-6.2667,Sidi Mohamed Lahmar,1985,Low
32.2833,-9.2333,Safi,1985,Medium
32.7342,-7.2033,Sgamna,1985,Medium
32.35,-6.6333,Oulad Zemam,1985,Low
31.6581,-6.42,Tabant,1985,Low
33.7833,-5.7167,Ras Ijerri,1985,Low
32.5353,-3.4481,Talsint,1985,Low
35.19300000000001,-3.912,Ajdir,1985,Low
29.7428,-7.9725,Tata,1985,Medium
31.5339,-8.2672,Zemrane,1985,Medium
30.7,-9.8333,Tamri,1985,Medium
33.7808,-5.7822,Ait Ali Mimoune,1985,Low
32.7128,-5.8042,Ait Ouaoumana,1985,Low
35.0339,-5.7706,Tatoufet,1985,Low
31.48,-6.94,Ait Tamlil,1985,Low
34.8167,-3.7286,Sidi 'Ali Bou Aqba,1985,Low
33.9342,-4.7381,Aghbalou Aqourar,1985,Low
35.1483,-3.5478,Taliouine,1985,Low
32.35,-8.5333,Zirara,1985,Medium
34.5,-4.55,Ain Mediouna,1985,Low
31.6706,-8.3456,Sidi Zouine,1985,Medium
33.3456,-3.6939,Outat Oulad Al Haj,1985,Low
30.4167,-9.5833,Agadir,1985,High
34.05,-6.8167,Sale,1985,Low
32.8938,-6.245,Souk el Had-des Beni-Batao,1985,Low
31.8667,-6.95,Tanant,1985,Low
34.15,-4.8314,Ain Kansara,1985,Low
31.6667,-7.0667,Sidi Yakoub,1985,Medium
34.4833,-5.5169,Souk et Tnine Jorf el Mellah,1985,Low
31.8514,-6.9658,Ait Majdane,1985,Low
35.25,-5.8333,Sebt Bni Garfett,1985,Low
30.2612,-5.682,Tamgrout,1985,Medium
33.8261,-6.9039,Sidi Yahya Zaer,1985,Low
26.0928,-10.6089,Tifariti,1985,Low
32.1167,-9.0833,Sebt Gzoula,1985,Medium
34.9333,-4.7833,Tamorot,1985,Low
30.5119,-8.7978,Ait Yazza,1985,Medium
35.1091,-5.4577,Tanakoub,1985,Low
33.6372,-7.4483,Ain Harrouda,1985,Low
31.0672,-6.5397,Skoura,1985,Low
34.0263,-5.7949,Ain Jemaa,1985,Low
30.6978,-6.4497,Agdz,1985,Low
35.085,-2.2392,Saidia,1985,Low
32.1433,-5.3503,Outerbat,1985,Low
31.5147,-5.5328,Tineghir,1985,Low
29.5333,-8.85,Tamsaout,1985,Medium
34.3539,-2.6255,Tancherfi,1985,Low
32.0333,-6.2,Tilougguit,1985,Low
31.2414,-6.1283,Qal'at Mgouna,1985,Low
32.4833,-7.9167,Skhour Rehamna,1985,Medium
30.9908,-9.7994,Timzguida Ouftas,1985,Medium
30.3342,-9.4972,Ait Melloul,1985,Medium
34.6167,-3.4167,Saka,1985,Low
33.85,-7.03,Skhirate,1985,Low
35.1167,-5.95,Souakene,1985,Low
28.4333,-11.1,Tan-Tan,1985,Medium
34.2606,-4.4139,Outa Bouabane,1985,Low
30.0297,-9.2478,Ait Ouakrim,1985,Medium
30.2249,-7.796,Agadir Melloul,1985,High
34.5358,-4.64,Taounate,1985,Low
33.2517,-5.0259,Timahdit,1985,Low
32.6215,-8.7022,Zemamra,1985,Medium
33.5667,-5.65,Ait Ikkou,1985,Low
32.9833,-7.1333,Souq at Tlata des Loulad,1985,Medium
33.83,-4.83,Sefrou,1985,Low
34.0253,-6.8361,Rabat,1985,Low
34.55,-4.9333,Ourtzagh,1985,Low
32.8167,-8.5,Sidi Smai'il,1985,Medium
31.5,-8.1,Tameslouht,1985,Medium
34.41,-2.89,Taourirt,1985,Low
34.26,-5.93,Sidi Slimane,1985,Low
33.9,-6.33,Tiflet,1985,Low
32.2,-6.4667,Timoulilt,1985,Low
30.9069,-3.9958,Taouz,1985,Low
31.5336,-9.5536,Ounagha,1985,Medium
34.9667,-4.55,Sahel,1985,Low
33.8833,-5.0333,Ain Cheggag,1985,Low
34.5949,-2.372,Ain Lehjer,1985,Low
32.2083,-6.5403,Afourar,1985,Low
35.4333,-5.4,Zinat,1985,Low
31.9833,-5.7833,Ait Youssef Ou Ali,1985,Low
34.1667,-4.5,Ain Legdah,1985,Low
30.4969,-8.8211,Sidi Yahia,1985,Medium
35.7767,-5.8039,Tangier,1985,Low
30.8075,-6.1142,Tamezmout,1985,Low
33.8111,-6.7922,Ain El Aouda,1985,Low
34.9382,-2.1455,Aghbal,1985,Low
32.6,-6.26,Qasbat Tadla,1985,Low
31.2167,-9.0833,Taouloukoult,1985,Medium
35.325,-5.6422,Souk Khmis Bni Arouss,1985,Low
32.2381,-6.1194,Tagalft,1985,Low
31.3442,-8.7053,Saidat,1985,Medium
33.7333,-5.5833,Ait Yaazem,1985,Low
34.6211,-6.1336,Souk Tlet El Gharb,1985,Low
34.3058,-6.3058,Sidi Yahia El Gharb,1985,Low
32.6833,-5.5833,Sidi Yahia Sawad,1985,Low
30.61,-8.01,Tazarine,1985,Medium
29.2987,-9.825,Sidi Mbark,1985,Medium
31.2136,-9.7058,Smimou,1985,Medium
29.9919,-7.5322,Akka Irene,1985,Medium
31.5,-5.035,Tinajdad,1985,Low
31.6258,-8.1028,Sa'ada,1985,Medium
33.6333,-5.5833,Agourai,1985,Low
33.05,-7.1833,Sidi Dahbi,1985,Low
34.3356,-6.4603,Oulad Salmane,1985,Low
33.5667,-6.8936,Sidi Bettach,1985,Low
34.7114,-5.815,Sidi Ahmed Ben Aissa,1985,Low
34.5197,-6.3236,Sidi Allal Tazi,1985,Low
33.2833,-7.2,Ahlaf,1985,Low
35.1033,-3.8383,Ait Bouchta,1985,Low
29.1228,-9.5992,Timoulay Izder,1985,Medium
31.6281,-6.9444,Tifni,1985,Low
30.07,-9.155,Ait Ban,1985,Medium
32.3528,-7.3245,Sidi El Hattab,1985,Medium
34.0019,-5.3694,Sidi Abdellah Ben Taazizt,1985,Low
34.6667,-5.2667,Teroual,1985,Low
30.8075,-7.7883,Tazoult,1985,Medium
30.7047,-8.8819,Tafraoutane,1985,Medium
30.5167,-6.8167,Aghbar,1985,Low
29.3908,-8.2564,Akka,1985,Medium
33.9598,-4.9954,Oulad Tayeb,1985,Low
33.8184,-4.4106,Ribat Al Khayr,1985,Low
32.655,-8.4292,Sidi Bennour,1985,Medium
34.6039,-4.7889,Sidi el Mokhfi,1985,Low
31.5792,-7.3131,Abadou,1985,Medium
33.2833,-5.3833,'Ain Leuh,1985,Low
34.0889,-2.0247,'Ayn Bni Mathar,1985,Low
34.7833,-4.9333,Ratba,1985,Low
33.6667,-4.6333,Tazouta,1985,Low
31.2842,-4.2642,Recani,1985,Low
30.3633,-9.4144,Temsia,1985,Medium
31.9033,-7.9422,Sidi Bou Othmane,1985,Medium
34.9514,-2.1025,Ahfir,1985,Low
35.1223,-3.6373,Temsamane,1985,Low
30.7667,-8.3833,Tafingoult,1985,Medium
31.0336,-9.1392,Timlilt,1985,Medium
34.0476,-4.4289,Tahla,1985,Low
35.1403,-4.1347,Rouadi,1985,Low
34.625,-5.1242,Tafrant,1985,Low
31.4458,-9.4383,Ait Said,1985,Medium
31.3514,-7.9508,Tahannawt,1985,Low
31.6345,-7.644,Ait Ben Daoudi,1985,Medium
31.5058,-7.7161,Ait Faska,1985,Medium
30.2333,-9.5333,Sidi Bibi,1985,High
34.5628,-5.3621,Sidi Bousber,1985,Low
33.9234,-6.9076,Temara,1985,Low
30.25,-9.55,Takad Sahel,1985,High
32.5167,-7.3833,Sidi Ahmed El Khadir,1985,Medium
32.2167,-5.4333,Tighadouine,1985,Low
31.7453,-8.7069,Sidi Chiker,1985,Medium
32.7775,-7.7725,Oulad Slim,1985,Medium
34.8819,-4.2803,Zerkat,1985,Low
31.9053,-7.2144,'Ali Ben Sliman,1985,Medium
34.4833,-4.7,Ain Aicha,1985,Low
29.7167,-8.9667,Tafraout,1985,Medium
